[
  {
"name": "Berco's",
"url": "https://www.zomato.com/ncr/bercos-sector-12-dwarka?utm_source=api_basic_user&utm_medium=api&utm_campaign=v2.1",
"address": "Manish Metro Plaza, Pocket 5, Sector 12, Dwarka, New Delhi",
"locality": "Sector 12, Dwarka",
"city": "New Delhi",
"latitude": "28.5932091074",
"longitude": "77.0467838645",
"zipcode": "0",
"country_id": "1",
"average_cost_for_two": "1100",
"currency": "Rs.",
"menu_url": "https://www.zomato.com/ncr/bercos-sector-12-dwarka/menu#tabtop?utm_source=api_basic_user&utm_medium=api&utm_campaign=v2.1",
"aggregate_rating": "3.4",
"rating_text": "Average",
"votes": "532",
"cuisines": "Chinese, Thai"},
 {
"name": "Men In The Kitchen",
"url": "https://www.zomato.com/ncr/men-in-the-kitchen-sector-12-dwarka?utm_source=api_basic_user&utm_medium=api&utm_campaign=v2.1",
"address": "1st Floor, Krishna Tower 2, Plot 1, Pocket 7, Sector 12, Dwarka",
"locality": "Sector 12, Dwarka",
"city": "New Delhi",
"latitude": "28.5909855883",
"longitude": "77.0445901528",
"zipcode": "",
"country_id": "1",
"average_cost_for_two": "850",
"currency": "Rs.",
"menu_url": "https://www.zomato.com/ncr/men-in-the-kitchen-sector-12-dwarka/menu#tabtop?utm_source=api_basic_user&utm_medium=api&utm_campaign=v2.1",
"aggregate_rating": "3.7",
"rating_text": "Good",
"votes": "249",
"cuisines": "North Indian, Mughlai, Chinese"},
 {
"name": "Drool Fresh Bake House Cafe",
"url": "https://www.zomato.com/ncr/drool-fresh-bake-house-cafe-sector-13-dwarka?utm_source=api_basic_user&utm_medium=api&utm_campaign=v2.1",
"address": "Near Sector 13 Metro Station, Sector 13, Dwarka, New Delhi",
"locality": "Sector 13, Dwarka",
"city": "New Delhi",
"latitude": "28.5971111182",
"longitude": "77.0338465646",
"zipcode": "",
"country_id": "1",
"average_cost_for_two": "1100",
"currency": "Rs.",
"menu_url": "https://www.zomato.com/ncr/drool-fresh-bake-house-cafe-sector-13-dwarka/menu#tabtop?utm_source=api_basic_user&utm_medium=api&utm_campaign=v2.1",
"aggregate_rating": "3.4",
"rating_text": "Average",
"votes": "400",
"cuisines": "Cafe, Continental"},
 {
"name": "Pind Balluchi",
"url": "https://www.zomato.com/ncr/pind-balluchi-sector-6-dwarka-new-delhi?utm_source=api_basic_user&utm_medium=api&utm_campaign=v2.1",
"address": "Plot 15-16, 2nd Floor, Supreme Plaza, Sector 6, Dwarka",
"locality": "Sector 6, Dwarka",
"city": "New Delhi",
"latitude": "28.5916740000",
"longitude": "77.0586030000",
"zipcode": "0",
"country_id": "1",
"average_cost_for_two": "850",
"currency": "Rs.",
"menu_url": "https://www.zomato.com/ncr/pind-balluchi-sector-6-dwarka-new-delhi/menu#tabtop?utm_source=api_basic_user&utm_medium=api&utm_campaign=v2.1",
"aggregate_rating": "2.1",
"rating_text": "Poor",
"votes": "317",
"cuisines": "North Indian, Mughlai"},
 {
"name": "KFC",
"url": "https://www.zomato.com/ncr/kfc-sector-4-dwarka?utm_source=api_basic_user&utm_medium=api&utm_campaign=v2.1",
"address": "1, Vikas Surya Plaza, Sector 4, Dwarka, New Delhi",
"locality": "Sector 4, Dwarka",
"city": "New Delhi",
"latitude": "28.5977911218",
"longitude": "77.0504591614",
"zipcode": "0",
"country_id": "1",
"average_cost_for_two": "500",
"currency": "Rs.",
"menu_url": "https://www.zomato.com/ncr/kfc-sector-4-dwarka/menu#tabtop?utm_source=api_basic_user&utm_medium=api&utm_campaign=v2.1",
"aggregate_rating": "2.5",
"rating_text": "Average",
"votes": "251",
"cuisines": "American, Fast Food"},
 {
"name": "Mai Thai",
"url": "https://www.zomato.com/ncr/mai-thai-sector-5-dwarka?utm_source=api_basic_user&utm_medium=api&utm_campaign=v2.1",
"address": "Shop 3, Plot 10, Sector 5, Dwarka",
"locality": "Sector 5, Dwarka",
"city": "New Delhi",
"latitude": "28.5953236590",
"longitude": "77.0520862564",
"zipcode": "110075",
"country_id": "1",
"average_cost_for_two": "700",
"currency": "Rs.",
"menu_url": "https://www.zomato.com/ncr/mai-thai-sector-5-dwarka/menu#tabtop?utm_source=api_basic_user&utm_medium=api&utm_campaign=v2.1",
"aggregate_rating": "3.5",
"rating_text": "Good",
"votes": "228",
"cuisines": "Chinese, Thai"},
 {
"name": "Biryani Blues",
"url": "https://www.zomato.com/ncr/biryani-blues-sector-11-dwarka-new-delhi?utm_source=api_basic_user&utm_medium=api&utm_campaign=v2.1",
"address": "1st Floor, Pankaj Arcade 3, Plot No 6, Pocket 4, Sector 11, Dwarka",
"locality": "Sector 11, Dwarka",
"city": "New Delhi",
"latitude": "28.5869890000",
"longitude": "77.0436600000",
"zipcode": "",
"country_id": "1",
"average_cost_for_two": "1000",
"currency": "Rs.",
"menu_url": "https://www.zomato.com/ncr/biryani-blues-sector-11-dwarka-new-delhi/menu#tabtop?utm_source=api_basic_user&utm_medium=api&utm_campaign=v2.1",
"aggregate_rating": "3.9",
"rating_text": "Good",
"votes": "159",
"cuisines": "Biryani, Hyderabadi"},
 {
"name": "Mughlai Express",
"url": "https://www.zomato.com/ncr/mughlai-express-sector-11-dwarka?utm_source=api_basic_user&utm_medium=api&utm_campaign=v2.1",
"address": "First Floor, Sudeep Plaza, Pocket 4, Sector-11, Sector 11, Dwarka, New Delhi",
"locality": "Sector 11, Dwarka",
"city": "New Delhi",
"latitude": "28.5872311404",
"longitude": "77.0429687575",
"zipcode": "110075",
"country_id": "1",
"average_cost_for_two": "800",
"currency": "Rs.",
"menu_url": "https://www.zomato.com/ncr/mughlai-express-sector-11-dwarka/menu#tabtop?utm_source=api_basic_user&utm_medium=api&utm_campaign=v2.1",
"aggregate_rating": "3.5",
"rating_text": "Good",
"votes": "329",
"cuisines": "Biryani, Mughlai, North Indian"},
 {
"name": "The Midnight Heroes",
"url": "https://www.zomato.com/ncr/the-midnight-heroes-sector-12-dwarka-new-delhi?utm_source=api_basic_user&utm_medium=api&utm_campaign=v2.1",
"address": "Sector 12, Dwarka New Delhi",
"locality": "Sector 12, Dwarka",
"city": "New Delhi",
"latitude": "28.5932640000",
"longitude": "77.0464320000",
"zipcode": "",
"country_id": "1",
"average_cost_for_two": "950",
"currency": "Rs.",
"menu_url": "https://www.zomato.com/ncr/the-midnight-heroes-sector-12-dwarka-new-delhi/menu#tabtop?utm_source=api_basic_user&utm_medium=api&utm_campaign=v2.1",
"aggregate_rating": "3.7",
"rating_text": "Good",
"votes": "299",
"cuisines": "North Indian, Biryani, Chinese, Fast Food"},
 {
"name": "Berco's",
"url": "https://www.zomato.com/ncr/bercos-rohini-new-delhi?utm_source=api_basic_user&utm_medium=api&utm_campaign=v2.1",
"address": "GA-06, Metro Walk Mall, Rohini, New Delhi",
"locality": "Rohini",
"city": "New Delhi",
"latitude": "28.7241878608",
"longitude": "77.1135973558",
"zipcode": "0",
"country_id": "1",
"average_cost_for_two": "1100",
"currency": "Rs.",
"menu_url": "https://www.zomato.com/ncr/bercos-rohini-new-delhi/menu#tabtop?utm_source=api_basic_user&utm_medium=api&utm_campaign=v2.1",
"aggregate_rating": "3.5",
"rating_text": "Good",
"votes": "305",
"cuisines": "Chinese, Thai"},
 {
"name": "Pind Balluchi",
"url": "https://www.zomato.com/ncr/pind-balluchi-rohini-new-delhi?utm_source=api_basic_user&utm_medium=api&utm_campaign=v2.1",
"address": "Shop 9-11, Metro Walk Mall, Rohini, New Delhi",
"locality": "Rohini",
"city": "New Delhi",
"latitude": "28.7239694051",
"longitude": "77.1138340607",
"zipcode": "0",
"country_id": "1",
"average_cost_for_two": "1000",
"currency": "Rs.",
"menu_url": "https://www.zomato.com/ncr/pind-balluchi-rohini-new-delhi/menu#tabtop?utm_source=api_basic_user&utm_medium=api&utm_campaign=v2.1",
"aggregate_rating": "3.0",
"rating_text": "Average",
"votes": "298",
"cuisines": "North Indian, Mughlai"},
 {
"name": "Gyms Kook",
"url": "https://www.zomato.com/ncr/gyms-kook-rohini-new-delhi?utm_source=api_basic_user&utm_medium=api&utm_campaign=v2.1",
"address": "S-22, Crescent Square Mall, DC Chowk, Rohini, New Delhi",
"locality": "Rohini",
"city": "New Delhi",
"latitude": "28.7186260651",
"longitude": "77.1250269189",
"zipcode": "",
"country_id": "1",
"average_cost_for_two": "1000",
"currency": "Rs.",
"menu_url": "https://www.zomato.com/ncr/gyms-kook-rohini-new-delhi/menu#tabtop?utm_source=api_basic_user&utm_medium=api&utm_campaign=v2.1",
"aggregate_rating": "3.3",
"rating_text": "Average",
"votes": "125",
"cuisines": "Continental, Italian"},
 {
"name": "Burger Joint",
"url": "https://www.zomato.com/ncr/burger-joint-rohini-new-delhi?utm_source=api_basic_user&utm_medium=api&utm_campaign=v2.1",
"address": "14, Crescent Square Mall, DC Chowk, Rohini, New Delhi",
"locality": "Rohini",
"city": "New Delhi",
"latitude": "28.7184502328",
"longitude": "77.1249192953",
"zipcode": "",
"country_id": "1",
"average_cost_for_two": "300",
"currency": "Rs.",
"menu_url": "https://www.zomato.com/ncr/burger-joint-rohini-new-delhi/menu#tabtop?utm_source=api_basic_user&utm_medium=api&utm_campaign=v2.1",
"aggregate_rating": "3.5",
"rating_text": "Good",
"votes": "155",
"cuisines": "Fast Food, Burger"},
 {
"name": "Burger King",
"url": "https://www.zomato.com/ncr/burger-king-rohini-new-delhi?utm_source=api_basic_user&utm_medium=api&utm_campaign=v2.1",
"address": "Unit 21-24, Ground Floor, D Mall, Twin District Center, Rohini, New Delhi",
"locality": "Rohini",
"city": "New Delhi",
"latitude": "28.7164301976",
"longitude": "77.1137358248",
"zipcode": "",
"country_id": "1",
"average_cost_for_two": "500",
"currency": "Rs.",
"menu_url": "https://www.zomato.com/ncr/burger-king-rohini-new-delhi/menu#tabtop?utm_source=api_basic_user&utm_medium=api&utm_campaign=v2.1",
"aggregate_rating": "3.6",
"rating_text": "Good",
"votes": "109",
"cuisines": "Burger, Fast Food"},
 {
"name": "Dunkin' Donuts",
"url": "https://www.zomato.com/ncr/dunkin-donuts-rohini-new-delhi?utm_source=api_basic_user&utm_medium=api&utm_campaign=v2.1",
"address": "Unity Mall, Near Rohini West Metro Station, Rohini, New Delhi",
"locality": "Rohini",
"city": "New Delhi",
"latitude": "28.7145283296",
"longitude": "77.1166198701",
"zipcode": "",
"country_id": "1",
"average_cost_for_two": "700",
"currency": "Rs.",
"menu_url": "https://www.zomato.com/ncr/dunkin-donuts-rohini-new-delhi/menu#tabtop?utm_source=api_basic_user&utm_medium=api&utm_campaign=v2.1",
"aggregate_rating": "3.6",
"rating_text": "Good",
"votes": "85",
"cuisines": "Burger, Desserts, Fast Food"},
 {
"name": "Mosaic - Crowne Plaza",
"url": "https://www.zomato.com/ncr/mosaic-crowne-plaza-rohini-new-delhi?utm_source=api_basic_user&utm_medium=api&utm_campaign=v2.1",
"address": "Crowne Plaza, Twin District Centre, Sector 10, Rohini, New Delhi",
"locality": "Rohini",
"city": "New Delhi",
"latitude": "28.7201662213",
"longitude": "77.1101618320",
"zipcode": "110085",
"country_id": "1",
"average_cost_for_two": "3000",
"currency": "Rs.",
"menu_url": "https://www.zomato.com/ncr/mosaic-crowne-plaza-rohini-new-delhi/menu#tabtop?utm_source=api_basic_user&utm_medium=api&utm_campaign=v2.1",
"aggregate_rating": "3.6",
"rating_text": "Good",
"votes": "235",
"cuisines": "Italian, Chinese, North Indian"},
 {
"name": "Domino's Pizza",
"url": "https://www.zomato.com/ncr/dominos-pizza-rohini-new-delhi?utm_source=api_basic_user&utm_medium=api&utm_campaign=v2.1",
"address": "10/11, Garg Mall, Community Center, Rohini, New Delhi",
"locality": "Rohini",
"city": "New Delhi",
"latitude": "28.7349219131",
"longitude": "77.1139504015",
"zipcode": "0",
"country_id": "1",
"average_cost_for_two": "700",
"currency": "Rs.",
"menu_url": "https://www.zomato.com/ncr/dominos-pizza-rohini-new-delhi/menu#tabtop?utm_source=api_basic_user&utm_medium=api&utm_campaign=v2.1",
"aggregate_rating": "3.4",
"rating_text": "Average",
"votes": "114",
"cuisines": "Pizza, Fast Food"},
 {
"name": "Moti Mahal Delux Tandoori Trail",
"url": "https://www.zomato.com/ncr/moti-mahal-delux-tandoori-trail-rohini-new-delhi?utm_source=api_basic_user&utm_medium=api&utm_campaign=v2.1",
"address": "GA-7 & 8, Metro Walk Mall, Rohini, New Delhi",
"locality": "Rohini",
"city": "New Delhi",
"latitude": "28.7243248732",
"longitude": "77.1137002856",
"zipcode": "0",
"country_id": "1",
"average_cost_for_two": "1000",
"currency": "Rs.",
"menu_url": "https://www.zomato.com/ncr/moti-mahal-delux-tandoori-trail-rohini-new-delhi/menu#tabtop?utm_source=api_basic_user&utm_medium=api&utm_campaign=v2.1",
"aggregate_rating": "3.3",
"rating_text": "Average",
"votes": "133",
"cuisines": "North Indian, Mughlai, Chinese"},
 {
"name": "Billu's Hut",
"url": "https://www.zomato.com/ncr/billus-hut-netaji-subhash-place-new-delhi?utm_source=api_basic_user&utm_medium=api&utm_campaign=v2.1",
"address": "G-28, Aggarwal Millenium Tower, Netaji Subhash Place, New Delhi",
"locality": "Netaji Subhash Place",
"city": "New Delhi",
"latitude": "28.6935475618",
"longitude": "77.1492328495",
"zipcode": "0",
"country_id": "1",
"average_cost_for_two": "250",
"currency": "Rs.",
"menu_url": "https://www.zomato.com/ncr/billus-hut-netaji-subhash-place-new-delhi/menu#tabtop?utm_source=api_basic_user&utm_medium=api&utm_campaign=v2.1",
"aggregate_rating": "4.1",
"rating_text": "Very Good",
"votes": "663",
"cuisines": "Fast Food, Chinese"},
 {
"name": "Lotus Leaf",
"url": "https://www.zomato.com/ncr/lotus-leaf-prashant-vihar-new-delhi?utm_source=api_basic_user&utm_medium=api&utm_campaign=v2.1",
"address": "104, 1st Floor, PVR Fun City Mall, Sector 14, Prashant Vihar, New Delhi",
"locality": "Prashant Vihar",
"city": "New Delhi",
"latitude": "28.7121647666",
"longitude": "77.1359378099",
"zipcode": "110085",
"country_id": "1",
"average_cost_for_two": "1500",
"currency": "Rs.",
"menu_url": "https://www.zomato.com/ncr/lotus-leaf-prashant-vihar-new-delhi/menu#tabtop?utm_source=api_basic_user&utm_medium=api&utm_campaign=v2.1",
"aggregate_rating": "3.7",
"rating_text": "Good",
"votes": "518",
"cuisines": "North Indian, Chinese"},
 {
"name": "Giri Momos Centre",
"url": "https://www.zomato.com/ncr/giri-momos-centre-pitampura-new-delhi?utm_source=api_basic_user&utm_medium=api&utm_campaign=v2.1",
"address": "ND Market, Pitampura, New Delhi",
"locality": "Pitampura",
"city": "New Delhi",
"latitude": "28.6993633127",
"longitude": "77.1458093449",
"zipcode": "",
"country_id": "1",
"average_cost_for_two": "300",
"currency": "Rs.",
"menu_url": "https://www.zomato.com/ncr/giri-momos-centre-pitampura-new-delhi/menu#tabtop?utm_source=api_basic_user&utm_medium=api&utm_campaign=v2.1",
"aggregate_rating": "3.7",
"rating_text": "Good",
"votes": "303",
"cuisines": "Chinese"},
 {
"name": "KFC",
"url": "https://www.zomato.com/ncr/kfc-pitampura-new-delhi?utm_source=api_basic_user&utm_medium=api&utm_campaign=v2.1",
"address": "Ansal MGF Metro Plaza, Pitampura, New Delhi",
"locality": "Pitampura",
"city": "New Delhi",
"latitude": "28.6955760000",
"longitude": "77.1518500000",
"zipcode": "110034",
"country_id": "1",
"average_cost_for_two": "500",
"currency": "Rs.",
"menu_url": "https://www.zomato.com/ncr/kfc-pitampura-new-delhi/menu#tabtop?utm_source=api_basic_user&utm_medium=api&utm_campaign=v2.1",
"aggregate_rating": "3.3",
"rating_text": "Average",
"votes": "201",
"cuisines": "American, Fast Food"},
 {
"name": "Burger King",
"url": "https://www.zomato.com/ncr/burger-king-netaji-subhash-place-new-delhi?utm_source=api_basic_user&utm_medium=api&utm_campaign=v2.1",
"address": "1st Floor, Plot C-1, 2 & 3, PP Towers, Netaji Subhash Place, New Delhi",
"locality": "Netaji Subhash Place",
"city": "New Delhi",
"latitude": "28.6933637464",
"longitude": "77.1512830630",
"zipcode": "",
"country_id": "1",
"average_cost_for_two": "500",
"currency": "Rs.",
"menu_url": "https://www.zomato.com/ncr/burger-king-netaji-subhash-place-new-delhi/menu#tabtop?utm_source=api_basic_user&utm_medium=api&utm_campaign=v2.1",
"aggregate_rating": "3.4",
"rating_text": "Average",
"votes": "349",
"cuisines": "Burger, Fast Food"},
 {
"name": "Sura Vie",
"url": "https://www.zomato.com/ncr/sura-vie-netaji-subhash-place-new-delhi?utm_source=api_basic_user&utm_medium=api&utm_campaign=v2.1",
"address": "101, Aggarwal Cyber Plaza 1, Netaji Subhash Place, New Delhi",
"locality": "Netaji Subhash Place",
"city": "New Delhi",
"latitude": "28.6938484300",
"longitude": "77.1495597437",
"zipcode": "",
"country_id": "1",
"average_cost_for_two": "1400",
"currency": "Rs.",
"menu_url": "https://www.zomato.com/ncr/sura-vie-netaji-subhash-place-new-delhi/menu#tabtop?utm_source=api_basic_user&utm_medium=api&utm_campaign=v2.1",
"aggregate_rating": "3.2",
"rating_text": "Average",
"votes": "325",
"cuisines": "North Indian, Italian, Chinese, Thai"},
 {
"name": "The Midnight Heroes",
"url": "https://www.zomato.com/ncr/the-midnight-heroes-pitampura-new-delhi?utm_source=api_basic_user&utm_medium=api&utm_campaign=v2.1",
"address": "Pitampura, New Delhi",
"locality": "Pitampura",
"city": "New Delhi",
"latitude": "28.7039890000",
"longitude": "77.1432500000",
"zipcode": "",
"country_id": "1",
"average_cost_for_two": "950",
"currency": "Rs.",
"menu_url": "https://www.zomato.com/ncr/the-midnight-heroes-pitampura-new-delhi/menu#tabtop?utm_source=api_basic_user&utm_medium=api&utm_campaign=v2.1",
"aggregate_rating": "3.4",
"rating_text": "Average",
"votes": "259",
"cuisines": "North Indian, Biryani, Chinese, Fast Food"},
 {
"name": "La Americana",
"url": "https://www.zomato.com/ncr/la-americana-netaji-subhash-place-new-delhi?utm_source=api_basic_user&utm_medium=api&utm_campaign=v2.1",
"address": "101-102, HB Twin Tower, Max Hospital, Netaji Subhash Place, New Delhi",
"locality": "Netaji Subhash Place",
"city": "New Delhi",
"latitude": "28.6933049254",
"longitude": "77.1518174931",
"zipcode": "",
"country_id": "1",
"average_cost_for_two": "600",
"currency": "Rs.",
"menu_url": "https://www.zomato.com/ncr/la-americana-netaji-subhash-place-new-delhi/menu#tabtop?utm_source=api_basic_user&utm_medium=api&utm_campaign=v2.1",
"aggregate_rating": "3.8",
"rating_text": "Good",
"votes": "101",
"cuisines": "Burger, Beverages, Fast Food"},
 {
"name": "Themis Barbecue House",
"url": "https://www.zomato.com/ncr/themis-barbecue-house-netaji-subhash-place-new-delhi?utm_source=api_basic_user&utm_medium=api&utm_campaign=v2.1",
"address": "Shop 251, 2nd Floor, Aggarwal Millennium Tower 1, Netaji Subhash Place, New Delhi",
"locality": "Netaji Subhash Place",
"city": "New Delhi",
"latitude": "28.6939993050",
"longitude": "77.1490471065",
"zipcode": "110035",
"country_id": "1",
"average_cost_for_two": "1000",
"currency": "Rs.",
"menu_url": "https://www.zomato.com/ncr/themis-barbecue-house-netaji-subhash-place-new-delhi/menu#tabtop?utm_source=api_basic_user&utm_medium=api&utm_campaign=v2.1",
"aggregate_rating": "3.6",
"rating_text": "Good",
"votes": "224",
"cuisines": "North Indian, Asian, Italian"},
 {
"name": "Whipped",
"url": "https://www.zomato.com/ncr/whipped-greater-kailash-gk-2-new-delhi?utm_source=api_basic_user&utm_medium=api&utm_campaign=v2.1",
"address": "E-556, Greater Kailash (GK) 2, New Delhi",
"locality": "Greater Kailash (GK) 2",
"city": "New Delhi",
"latitude": "28.5385851936",
"longitude": "77.2399716452",
"zipcode": "0",
"country_id": "1",
"average_cost_for_two": "400",
"currency": "Rs.",
"menu_url": "https://www.zomato.com/ncr/whipped-greater-kailash-gk-2-new-delhi/menu#tabtop?utm_source=api_basic_user&utm_medium=api&utm_campaign=v2.1",
"aggregate_rating": "4.3",
"rating_text": "Very Good",
"votes": "1016",
"cuisines": "Bakery, Desserts"},
 {
"name": "Natural Ice Cream",
"url": "https://www.zomato.com/NaturalsGK2?utm_source=api_basic_user&utm_medium=api&utm_campaign=v2.1",
"address": "Ground Floor, JMD Kohinoor Mall, Masjid Moth, Main Road, Greater Kailash (GK) 2, New Delhi",
"locality": "Greater Kailash (GK) 2",
"city": "New Delhi",
"latitude": "28.5367051370",
"longitude": "77.2385557741",
"zipcode": "",
"country_id": "1",
"average_cost_for_two": "150",
"currency": "Rs.",
"menu_url": "https://www.zomato.com/NaturalsGK2/menu#tabtop?utm_source=api_basic_user&utm_medium=api&utm_campaign=v2.1",
"aggregate_rating": "4.7",
"rating_text": "Excellent",
"votes": "632",
"cuisines": "Ice Cream, Desserts"},
 {
"name": "Culinaire",
"url": "https://www.zomato.com/ncr/culinaire-greater-kailash-gk-2-new-delhi?utm_source=api_basic_user&utm_medium=api&utm_campaign=v2.1",
"address": "Shop 2, Chandan Market, S Block, Greater Kailash (GK) 2, New Delhi",
"locality": "Greater Kailash (GK) 2",
"city": "New Delhi",
"latitude": "28.5308108551",
"longitude": "77.2459238023",
"zipcode": "0",
"country_id": "1",
"average_cost_for_two": "1000",
"currency": "Rs.",
"menu_url": "https://www.zomato.com/ncr/culinaire-greater-kailash-gk-2-new-delhi/menu#tabtop?utm_source=api_basic_user&utm_medium=api&utm_campaign=v2.1",
"aggregate_rating": "3.8",
"rating_text": "Good",
"votes": "773",
"cuisines": "Chinese, Thai"},
 {
"name": "Nutritious Nation",
"url": "https://www.zomato.com/ncr/nutritious-nation-greater-kailash-gk-2-new-delhi?utm_source=api_basic_user&utm_medium=api&utm_campaign=v2.1",
"address": "M-45, Main Market, Ground Floor, Greater Kailash (GK) 2, New Delhi",
"locality": "Greater Kailash (GK) 2",
"city": "New Delhi",
"latitude": "28.5338215132",
"longitude": "77.2426645830",
"zipcode": "",
"country_id": "1",
"average_cost_for_two": "900",
"currency": "Rs.",
"menu_url": "https://www.zomato.com/ncr/nutritious-nation-greater-kailash-gk-2-new-delhi/menu#tabtop?utm_source=api_basic_user&utm_medium=api&utm_campaign=v2.1",
"aggregate_rating": "3.7",
"rating_text": "Good",
"votes": "324",
"cuisines": "Healthy Food, Continental, Salad"},
 {
"name": "Not Just Paranthas",
"url": "https://www.zomato.com/ncr/not-just-paranthas-greater-kailash-gk-2-new-delhi?utm_source=api_basic_user&utm_medium=api&utm_campaign=v2.1",
"address": "M-84, M Block Market, Greater Kailash (GK) 2, New Delhi",
"locality": "Greater Kailash (GK) 2",
"city": "New Delhi",
"latitude": "28.5322957233",
"longitude": "77.2426159680",
"zipcode": "0",
"country_id": "1",
"average_cost_for_two": "1100",
"currency": "Rs.",
"menu_url": "https://www.zomato.com/ncr/not-just-paranthas-greater-kailash-gk-2-new-delhi/menu#tabtop?utm_source=api_basic_user&utm_medium=api&utm_campaign=v2.1",
"aggregate_rating": "3.8",
"rating_text": "Good",
"votes": "440",
"cuisines": "North Indian"},
 {
"name": "Mainland China",
"url": "https://www.zomato.com/ncr/mainland-china-greater-kailash-gk-2-new-delhi?utm_source=api_basic_user&utm_medium=api&utm_campaign=v2.1",
"address": "Plot 4, Local Shopping Centre, Masjid Moth, Greater Kailash (GK) 2, New Delhi",
"locality": "Greater Kailash (GK) 2",
"city": "New Delhi",
"latitude": "28.5373169028",
"longitude": "77.2386583686",
"zipcode": "0",
"country_id": "1",
"average_cost_for_two": "1800",
"currency": "Rs.",
"menu_url": "https://www.zomato.com/ncr/mainland-china-greater-kailash-gk-2-new-delhi/menu#tabtop?utm_source=api_basic_user&utm_medium=api&utm_campaign=v2.1",
"aggregate_rating": "3.7",
"rating_text": "Good",
"votes": "738",
"cuisines": "Chinese"},
 {
"name": "Yeti - The Himalayan Kitchen",
"url": "https://www.zomato.com/ncr/yeti-the-himalayan-kitchen-greater-kailash-gk-2-new-delhi?utm_source=api_basic_user&utm_medium=api&utm_campaign=v2.1",
"address": "M-20, M Block Market, Greater Kailash (GK) 2, New Delhi",
"locality": "Greater Kailash (GK) 2",
"city": "New Delhi",
"latitude": "28.5336768881",
"longitude": "77.2423316538",
"zipcode": "",
"country_id": "1",
"average_cost_for_two": "1300",
"currency": "Rs.",
"menu_url": "https://www.zomato.com/ncr/yeti-the-himalayan-kitchen-greater-kailash-gk-2-new-delhi/menu#tabtop?utm_source=api_basic_user&utm_medium=api&utm_campaign=v2.1",
"aggregate_rating": "3.8",
"rating_text": "Good",
"votes": "693",
"cuisines": "Tibetan, Nepalese"},
 {
"name": "Happy Hakka",
"url": "https://www.zomato.com/ncr/happy-hakka-greater-kailash-gk-2-new-delhi?utm_source=api_basic_user&utm_medium=api&utm_campaign=v2.1",
"address": "E-578, Savitri Road, Greater Kailash (GK) 2, New Delhi",
"locality": "Greater Kailash (GK) 2",
"city": "New Delhi",
"latitude": "28.5404716964",
"longitude": "77.2402485833",
"zipcode": "",
"country_id": "1",
"average_cost_for_two": "650",
"currency": "Rs.",
"menu_url": "https://www.zomato.com/ncr/happy-hakka-greater-kailash-gk-2-new-delhi/menu#tabtop?utm_source=api_basic_user&utm_medium=api&utm_campaign=v2.1",
"aggregate_rating": "3.7",
"rating_text": "Good",
"votes": "269",
"cuisines": "Chinese"},
 {
"name": "Naivedyam",
"url": "https://www.zomato.com/ncr/naivedyam-kalkaji-new-delhi?utm_source=api_basic_user&utm_medium=api&utm_campaign=v2.1",
"address": "F-12, Main Road, Kalkaji, New Delhi",
"locality": "Kalkaji",
"city": "New Delhi",
"latitude": "28.5419570175",
"longitude": "77.2542731836",
"zipcode": "0",
"country_id": "1",
"average_cost_for_two": "500",
"currency": "Rs.",
"menu_url": "https://www.zomato.com/ncr/naivedyam-kalkaji-new-delhi/menu#tabtop?utm_source=api_basic_user&utm_medium=api&utm_campaign=v2.1",
"aggregate_rating": "3.9",
"rating_text": "Good",
"votes": "456",
"cuisines": "South Indian"},
  {
"name": "The Colony Bistro",
"url": "https://www.zomato.com/ncr/the-colony-bistro-lajpat-nagar-4-new-delhi?utm_source=api_basic_user&utm_medium=api&utm_campaign=v2.1",
"address": "C-31, Amar Colony Main Market, Lajpat Nagar 4, New Delhi",
"locality": "Lajpat Nagar 4",
"city": "New Delhi",
"latitude": "28.5627499020",
"longitude": "77.2443758324",
"zipcode": "0",
"country_id": "1",
"average_cost_for_two": "1000",
"currency": "Rs.",
"menu_url": "https://www.zomato.com/ncr/the-colony-bistro-lajpat-nagar-4-new-delhi/menu#tabtop?utm_source=api_basic_user&utm_medium=api&utm_campaign=v2.1",
"aggregate_rating": "3.8",
"rating_text": "Good",
"votes": "697",
"cuisines": "American, North Indian, Chinese, Italian"},
 {
"name": "Sagar Ratna",
"url": "https://www.zomato.com/ncr/sagar-ratna-1-defence-colony-new-delhi?utm_source=api_basic_user&utm_medium=api&utm_campaign=v2.1",
"address": "18, Defence Colony Market, Defence Colony, New Delhi",
"locality": "Defence Colony",
"city": "New Delhi",
"latitude": "28.5733403135",
"longitude": "77.2302442789",
"zipcode": "0",
"country_id": "1",
"average_cost_for_two": "600",
"currency": "Rs.",
"menu_url": "https://www.zomato.com/ncr/sagar-ratna-1-defence-colony-new-delhi/menu#tabtop?utm_source=api_basic_user&utm_medium=api&utm_campaign=v2.1",
"aggregate_rating": "4.0",
"rating_text": "Very Good",
"votes": "731",
"cuisines": "South Indian"},
 {
"name": "RoadRomeo",
"url": "https://www.zomato.com/ncr/roadromeo-defence-colony-new-delhi?utm_source=api_basic_user&utm_medium=api&utm_campaign=v2.1",
"address": "47, Defence Colony Market, Defence Colony, New Delhi",
"locality": "Defence Colony",
"city": "New Delhi",
"latitude": "28.5707244638",
"longitude": "77.2303767130",
"zipcode": "",
"country_id": "1",
"average_cost_for_two": "1650",
"currency": "Rs.",
"menu_url": "https://www.zomato.com/ncr/roadromeo-defence-colony-new-delhi/menu#tabtop?utm_source=api_basic_user&utm_medium=api&utm_campaign=v2.1",
"aggregate_rating": "4.2",
"rating_text": "Very Good",
"votes": "394",
"cuisines": "Hyderabadi, Kashmiri, North Indian, Chinese"},
 {
"name": "Kent's Fast Food",
"url": "https://www.zomato.com/ncr/kents-fast-food-defence-colony-new-delhi?utm_source=api_basic_user&utm_medium=api&utm_campaign=v2.1",
"address": "29, Defence Colony Market, Defence Colony, New Delhi",
"locality": "Defence Colony",
"city": "New Delhi",
"latitude": "28.5739963268",
"longitude": "77.2303545848",
"zipcode": "0",
"country_id": "1",
"average_cost_for_two": "500",
"currency": "Rs.",
"menu_url": "https://www.zomato.com/ncr/kents-fast-food-defence-colony-new-delhi/menu#tabtop?utm_source=api_basic_user&utm_medium=api&utm_campaign=v2.1",
"aggregate_rating": "3.7",
"rating_text": "Good",
"votes": "719",
"cuisines": "Burger, Fast Food"},
 {
"name": "Amici Cafe",
"url": "https://www.zomato.com/ncr/amici-cafe-defence-colony-new-delhi?utm_source=api_basic_user&utm_medium=api&utm_campaign=v2.1",
"address": "8, Defence Colony Market, Defence Colony, New Delhi",
"locality": "Defence Colony",
"city": "New Delhi",
"latitude": "28.5737787358",
"longitude": "77.2303036228",
"zipcode": "0",
"country_id": "1",
"average_cost_for_two": "1200",
"currency": "Rs.",
"menu_url": "https://www.zomato.com/ncr/amici-cafe-defence-colony-new-delhi/menu#tabtop?utm_source=api_basic_user&utm_medium=api&utm_campaign=v2.1",
"aggregate_rating": "3.7",
"rating_text": "Good",
"votes": "335",
"cuisines": "Cafe, Italian"},
 {
"name": "1 Oak Cafe & Bar",
"url": "https://www.zomato.com/ncr/1-oak-cafe-bar-defence-colony-new-delhi?utm_source=api_basic_user&utm_medium=api&utm_campaign=v2.1",
"address": "Moolchand Flyover Complex, Defence Colony, New Delhi",
"locality": "Defence Colony",
"city": "New Delhi",
"latitude": "28.5664321976",
"longitude": "77.2336805239",
"zipcode": "",
"country_id": "1",
"average_cost_for_two": "1300",
"currency": "Rs.",
"menu_url": "https://www.zomato.com/ncr/1-oak-cafe-bar-defence-colony-new-delhi/menu#tabtop?utm_source=api_basic_user&utm_medium=api&utm_campaign=v2.1",
"aggregate_rating": "3.6",
"rating_text": "Good",
"votes": "709",
"cuisines": "Italian, Continental, Fast Food, Chinese"},
 {
"name": "Kathputli",
"url": "https://www.zomato.com/ncr/kathputli-defence-colony-new-delhi?utm_source=api_basic_user&utm_medium=api&utm_campaign=v2.1",
"address": "35, Defence Colony Market, Defence Colony, New Delhi",
"locality": "Defence Colony",
"city": "New Delhi",
"latitude": "28.5736730317",
"longitude": "77.2300243378",
"zipcode": "110024",
"country_id": "1",
"average_cost_for_two": "900",
"currency": "Rs.",
"menu_url": "https://www.zomato.com/ncr/kathputli-defence-colony-new-delhi/menu#tabtop?utm_source=api_basic_user&utm_medium=api&utm_campaign=v2.1",
"aggregate_rating": "4.1",
"rating_text": "Very Good",
"votes": "615",
"cuisines": "Rajasthani"},
 {
"name": "D'Momo factory",
"url": "https://www.zomato.com/ncr/dmomo-factory-lajpat-nagar-4-new-delhi?utm_source=api_basic_user&utm_medium=api&utm_campaign=v2.1",
"address": "C-30, Amar Colony, Lajpat Nagar 4, New Delhi",
"locality": "Lajpat Nagar 4",
"city": "New Delhi",
"latitude": "28.5627755209",
"longitude": "77.2442933545",
"zipcode": "",
"country_id": "1",
"average_cost_for_two": "600",
"currency": "Rs.",
"menu_url": "https://www.zomato.com/ncr/dmomo-factory-lajpat-nagar-4-new-delhi/menu#tabtop?utm_source=api_basic_user&utm_medium=api&utm_campaign=v2.1",
"aggregate_rating": "3.7",
"rating_text": "Good",
"votes": "194",
"cuisines": "Chinese, Italian, Thai, Fast Food"},
 {
"name": "Def Col Social",
"url": "https://www.zomato.com/DefColSocial?utm_source=api_basic_user&utm_medium=api&utm_campaign=v2.1",
"address": "28-A, Defence Colony Market, Defence Colony, New Delhi",
"locality": "Defence Colony",
"city": "New Delhi",
"latitude": "28.5729071893",
"longitude": "77.2303220630",
"zipcode": "",
"country_id": "1",
"average_cost_for_two": "1600",
"currency": "Rs.",
"menu_url": "https://www.zomato.com/DefColSocial/menu#tabtop?utm_source=api_basic_user&utm_medium=api&utm_campaign=v2.1",
"aggregate_rating": "3.8",
"rating_text": "Good",
"votes": "704",
"cuisines": "Continental, American, Asian, North Indian"},
  {
"name": "Little Chef",
"url": "https://www.zomato.com/ncr/little-chef-paschim-vihar-new-delhi?utm_source=api_basic_user&utm_medium=api&utm_campaign=v2.1",
"address": "8-A, Lotus Tower, Near Fire Station, Jwala Heri Road, Paschim Vihar, New Delhi",
"locality": "Paschim Vihar",
"city": "New Delhi",
"latitude": "28.6693058561",
"longitude": "77.1008059010",
"zipcode": "",
"country_id": "1",
"average_cost_for_two": "600",
"currency": "Rs.",
"menu_url": "https://www.zomato.com/ncr/little-chef-paschim-vihar-new-delhi/menu#tabtop?utm_source=api_basic_user&utm_medium=api&utm_campaign=v2.1",
"aggregate_rating": "3.4",
"rating_text": "Average",
"votes": "550",
"cuisines": "North Indian, Mughlai, Chinese, Fast Food"},
 {
"name": "Baljeet's Amritsari Koolcha",
"url": "https://www.zomato.com/ncr/baljeets-amritsari-koolcha-paschim-vihar-new-delhi?utm_source=api_basic_user&utm_medium=api&utm_campaign=v2.1",
"address": "D-2, Shubham Enclave, Jwala Heri Road, Paschim Vihar, New Delhi",
"locality": "Paschim Vihar",
"city": "New Delhi",
"latitude": "28.6690360997",
"longitude": "77.0968727767",
"zipcode": "0",
"country_id": "1",
"average_cost_for_two": "300",
"currency": "Rs.",
"menu_url": "https://www.zomato.com/ncr/baljeets-amritsari-koolcha-paschim-vihar-new-delhi/menu#tabtop?utm_source=api_basic_user&utm_medium=api&utm_campaign=v2.1",
"aggregate_rating": "4.1",
"rating_text": "Very Good",
"votes": "439",
"cuisines": "North Indian"},
 {
"name": "Wah Ji Wah",
"url": "https://www.zomato.com/ncr/wah-ji-wah-paschim-vihar-new-delhi?utm_source=api_basic_user&utm_medium=api&utm_campaign=v2.1",
"address": "11, CSC, DDA Market, A-2 Block, Paschim Vihar, New Delhi",
"locality": "Paschim Vihar",
"city": "New Delhi",
"latitude": "28.6728426310",
"longitude": "77.1030361578",
"zipcode": "0",
"country_id": "1",
"average_cost_for_two": "550",
"currency": "Rs.",
"menu_url": "https://www.zomato.com/ncr/wah-ji-wah-paschim-vihar-new-delhi/menu#tabtop?utm_source=api_basic_user&utm_medium=api&utm_campaign=v2.1",
"aggregate_rating": "2.5",
"rating_text": "Average",
"votes": "201",
"cuisines": "North Indian"},
 {
"name": "Dunkin' Donuts",
"url": "https://www.zomato.com/ncr/dunkin-donuts-paschim-vihar-new-delhi?utm_source=api_basic_user&utm_medium=api&utm_campaign=v2.1",
"address": "Ground Floor, Plot A-4/44, Paschim Vihar, New Delhi",
"locality": "Paschim Vihar",
"city": "New Delhi",
"latitude": "28.6707194444",
"longitude": "77.1098944444",
"zipcode": "",
"country_id": "1",
"average_cost_for_two": "700",
"currency": "Rs.",
"menu_url": "https://www.zomato.com/ncr/dunkin-donuts-paschim-vihar-new-delhi/menu#tabtop?utm_source=api_basic_user&utm_medium=api&utm_campaign=v2.1",
"aggregate_rating": "3.7",
"rating_text": "Good",
"votes": "141",
"cuisines": "Burger, Desserts, Fast Food"},
 {
"name": "Papa Veg Chinese Food",
"url": "https://www.zomato.com/ncr/papa-veg-chinese-food-paschim-vihar-new-delhi?utm_source=api_basic_user&utm_medium=api&utm_campaign=v2.1",
"address": "15, A-2 Block, CSC, Near Mother Dairy, DDA Market, Paschim Vihar, New Delhi",
"locality": "Paschim Vihar",
"city": "New Delhi",
"latitude": "28.6726355404",
"longitude": "77.1031320468",
"zipcode": "0",
"country_id": "1",
"average_cost_for_two": "450",
"currency": "Rs.",
"menu_url": "https://www.zomato.com/ncr/papa-veg-chinese-food-paschim-vihar-new-delhi/menu#tabtop?utm_source=api_basic_user&utm_medium=api&utm_campaign=v2.1",
"aggregate_rating": "3.5",
"rating_text": "Good",
"votes": "104",
"cuisines": "North Indian, Chinese"},
 {
"name": "Dilkhush Food Plaza",
"url": "https://www.zomato.com/ncr/dilkhush-food-plaza-paschim-vihar-new-delhi?utm_source=api_basic_user&utm_medium=api&utm_campaign=v2.1",
"address": "A3, DDA Market, Paschim Vihar, New Delhi",
"locality": "Paschim Vihar",
"city": "New Delhi",
"latitude": "28.6704637122",
"longitude": "77.1089179069",
"zipcode": "0",
"country_id": "1",
"average_cost_for_two": "900",
"currency": "Rs.",
"menu_url": "https://www.zomato.com/ncr/dilkhush-food-plaza-paschim-vihar-new-delhi/menu#tabtop?utm_source=api_basic_user&utm_medium=api&utm_campaign=v2.1",
"aggregate_rating": "3.6",
"rating_text": "Good",
"votes": "198",
"cuisines": "North Indian, Chinese"},
 {
"name": "Red Chilli",
"url": "https://www.zomato.com/ncr/red-chilli-paschim-vihar-new-delhi?utm_source=api_basic_user&utm_medium=api&utm_campaign=v2.1",
"address": "G-12, Pushkar Enclave, Opposite Radisson Hotel, Paschim Vihar, New Delhi",
"locality": "Paschim Vihar",
"city": "New Delhi",
"latitude": "28.6647138889",
"longitude": "77.0924305556",
"zipcode": "",
"country_id": "1",
"average_cost_for_two": "1500",
"currency": "Rs.",
"menu_url": "https://www.zomato.com/ncr/red-chilli-paschim-vihar-new-delhi/menu#tabtop?utm_source=api_basic_user&utm_medium=api&utm_campaign=v2.1",
"aggregate_rating": "2.5",
"rating_text": "Average",
"votes": "153",
"cuisines": "North Indian, Chinese"},
 {
"name": "Spiceroot",
"url": "https://www.zomato.com/ncr/spiceroot-paschim-vihar-new-delhi?utm_source=api_basic_user&utm_medium=api&utm_campaign=v2.1",
"address": "G-21-24, LSC, Garg Plaza, Bhera Enclave, Opposite National Market, Paschim Vihar, New Delhi",
"locality": "Paschim Vihar",
"city": "New Delhi",
"latitude": "28.6736239235",
"longitude": "77.0885203779",
"zipcode": "0",
"country_id": "1",
"average_cost_for_two": "650",
"currency": "Rs.",
"menu_url": "https://www.zomato.com/ncr/spiceroot-paschim-vihar-new-delhi/menu#tabtop?utm_source=api_basic_user&utm_medium=api&utm_campaign=v2.1",
"aggregate_rating": "3.2",
"rating_text": "Average",
"votes": "133",
"cuisines": "North Indian, Mughlai, Chinese"},
 {
"name": "Art of Spices",
"url": "https://www.zomato.com/ncr/art-of-spices-paschim-vihar-new-delhi?utm_source=api_basic_user&utm_medium=api&utm_campaign=v2.1",
"address": "53, BG-8, Ground Floor, DDA Market, Near Teachers Colony, Paschim Vihar, New Delhi",
"locality": "Paschim Vihar",
"city": "New Delhi",
"latitude": "28.6627055968",
"longitude": "77.1005239338",
"zipcode": "0",
"country_id": "1",
"average_cost_for_two": "600",
"currency": "Rs.",
"menu_url": "https://www.zomato.com/ncr/art-of-spices-paschim-vihar-new-delhi/menu#tabtop?utm_source=api_basic_user&utm_medium=api&utm_campaign=v2.1",
"aggregate_rating": "3.8",
"rating_text": "Good",
"votes": "204",
"cuisines": "Fast Food, North Indian, Mughlai"},
  {
"name": "Berco's",
"url": "https://www.zomato.com/ncr/bercos-janakpuri-new-delhi?utm_source=api_basic_user&utm_medium=api&utm_campaign=v2.1",
"address": "R-2, DDA Building, District Center, Janak Palace, Janakpuri, New Delhi",
"locality": "Janakpuri",
"city": "New Delhi",
"latitude": "28.6303240056",
"longitude": "77.0814688504",
"zipcode": "0",
"country_id": "1",
"average_cost_for_two": "1100",
"currency": "Rs.",
"menu_url": "https://www.zomato.com/ncr/bercos-janakpuri-new-delhi/menu#tabtop?utm_source=api_basic_user&utm_medium=api&utm_campaign=v2.1",
"aggregate_rating": "3.8",
"rating_text": "Good",
"votes": "583",
"cuisines": "Chinese, Thai"},
 {
"name": "Over The Top",
"url": "https://www.zomato.com/ncr/over-the-top-janakpuri-new-delhi?utm_source=api_basic_user&utm_medium=api&utm_campaign=v2.1",
"address": "B 1/633, 3rd Floor, Above Pantaloons, Janakpuri, New Delhi",
"locality": "Janakpuri",
"city": "New Delhi",
"latitude": "28.6320988038",
"longitude": "77.0843428373",
"zipcode": "0",
"country_id": "1",
"average_cost_for_two": "1200",
"currency": "Rs.",
"menu_url": "https://www.zomato.com/ncr/over-the-top-janakpuri-new-delhi/menu#tabtop?utm_source=api_basic_user&utm_medium=api&utm_campaign=v2.1",
"aggregate_rating": "3.7",
"rating_text": "Good",
"votes": "539",
"cuisines": "North Indian, Mughlai, Italian"},
 {
"name": "The Midnight Heroes",
"url": "https://www.zomato.com/ncr/the-midnight-heroes-janakpuri-new-delhi?utm_source=api_basic_user&utm_medium=api&utm_campaign=v2.1",
"address": "Janakpuri, New Delhi",
"locality": "Janakpuri",
"city": "New Delhi",
"latitude": "28.6195620000",
"longitude": "77.0881460000",
"zipcode": "",
"country_id": "1",
"average_cost_for_two": "950",
"currency": "Rs.",
"menu_url": "https://www.zomato.com/ncr/the-midnight-heroes-janakpuri-new-delhi/menu#tabtop?utm_source=api_basic_user&utm_medium=api&utm_campaign=v2.1",
"aggregate_rating": "3.5",
"rating_text": "Good",
"votes": "423",
"cuisines": "North Indian, Biryani, Chinese, Fast Food"},
 {
"name": "Om Sweets & Snacks",
"url": "https://www.zomato.com/ncr/om-sweets-snacks-jail-road-new-delhi?utm_source=api_basic_user&utm_medium=api&utm_campaign=v2.1",
"address": "GL-23, Hari Nagar, Jail Road, New Delhi",
"locality": "Jail Road",
"city": "New Delhi",
"latitude": "28.6279638394",
"longitude": "77.1005011350",
"zipcode": "0",
"country_id": "1",
"average_cost_for_two": "500",
"currency": "Rs.",
"menu_url": "https://www.zomato.com/ncr/om-sweets-snacks-jail-road-new-delhi/menu#tabtop?utm_source=api_basic_user&utm_medium=api&utm_campaign=v2.1",
"aggregate_rating": "3.6",
"rating_text": "Good",
"votes": "331",
"cuisines": "North Indian, South Indian, Chinese, Street Food, Desserts, Mithai"},
 {
"name": "Bemisaal Reloaded",
"url": "https://www.zomato.com/ncr/bemisaal-reloaded-janakpuri-new-delhi?utm_source=api_basic_user&utm_medium=api&utm_campaign=v2.1",
"address": "B-26 & 27, Community Centre, Janakpuri, New Delhi",
"locality": "Janakpuri",
"city": "New Delhi",
"latitude": "28.6292934258",
"longitude": "77.0913159102",
"zipcode": "",
"country_id": "1",
"average_cost_for_two": "1250",
"currency": "Rs.",
"menu_url": "https://www.zomato.com/ncr/bemisaal-reloaded-janakpuri-new-delhi/menu#tabtop?utm_source=api_basic_user&utm_medium=api&utm_campaign=v2.1",
"aggregate_rating": "4.2",
"rating_text": "Very Good",
"votes": "101",
"cuisines": "North Indian, Chinese"},
 {
"name": "Barbeque Company",
"url": "https://www.zomato.com/ncr/barbeque-company-jail-road-new-delhi?utm_source=api_basic_user&utm_medium=api&utm_campaign=v2.1",
"address": "HL 1-2, L Block, Jail Road, New Delhi",
"locality": "Jail Road",
"city": "New Delhi",
"latitude": "28.6254720000",
"longitude": "77.1014460000",
"zipcode": "",
"country_id": "1",
"average_cost_for_two": "1200",
"currency": "Rs.",
"menu_url": "https://www.zomato.com/ncr/barbeque-company-jail-road-new-delhi/menu#tabtop?utm_source=api_basic_user&utm_medium=api&utm_campaign=v2.1",
"aggregate_rating": "4.1",
"rating_text": "Very Good",
"votes": "385",
"cuisines": "North Indian, Chinese, Continental"},
 {
"name": "Da' Pizza Planet",
"url": "https://www.zomato.com/ncr/da-pizza-planet-janakpuri-new-delhi?utm_source=api_basic_user&utm_medium=api&utm_campaign=v2.1",
"address": "88A, C2B Block, Janakpuri, New Delhi",
"locality": "Janakpuri",
"city": "New Delhi",
"latitude": "28.6216340944",
"longitude": "77.0885130018",
"zipcode": "",
"country_id": "1",
"average_cost_for_two": "600",
"currency": "Rs.",
"menu_url": "https://www.zomato.com/ncr/da-pizza-planet-janakpuri-new-delhi/menu#tabtop?utm_source=api_basic_user&utm_medium=api&utm_campaign=v2.1",
"aggregate_rating": "3.6",
"rating_text": "Good",
"votes": "255",
"cuisines": "Pizza, Italian"},
 {
"name": "Yo! China",
"url": "https://www.zomato.com/ncr/yo-china-janakpuri-new-delhi?utm_source=api_basic_user&utm_medium=api&utm_campaign=v2.1",
"address": "Satyam Cineplex, District Center, Janakpuri, New Delhi",
"locality": "Janakpuri",
"city": "New Delhi",
"latitude": "28.6298631593",
"longitude": "77.0822171867",
"zipcode": "0",
"country_id": "1",
"average_cost_for_two": "1300",
"currency": "Rs.",
"menu_url": "https://www.zomato.com/ncr/yo-china-janakpuri-new-delhi/menu#tabtop?utm_source=api_basic_user&utm_medium=api&utm_campaign=v2.1",
"aggregate_rating": "3.4",
"rating_text": "Average",
"votes": "375",
"cuisines": "Chinese"},
 {
"name": "The Tummy Section",
"url": "https://www.zomato.com/ncr/the-tummy-section-jail-road-new-delhi?utm_source=api_basic_user&utm_medium=api&utm_campaign=v2.1",
"address": "23/1, Shop 4, Prem Nagar, Jail Road, New Delhi",
"locality": "Jail Road",
"city": "New Delhi",
"latitude": "28.6347446129",
"longitude": "77.0970316976",
"zipcode": "",
"country_id": "1",
"average_cost_for_two": "350",
"currency": "Rs.",
"menu_url": "https://www.zomato.com/ncr/the-tummy-section-jail-road-new-delhi/menu#tabtop?utm_source=api_basic_user&utm_medium=api&utm_campaign=v2.1",
"aggregate_rating": "3.7",
"rating_text": "Good",
"votes": "352",
"cuisines": "Chinese, Lebanese, Fast Food, Pizza"},
 {
"name": "Metro",
"url": "https://www.zomato.com/ncr/metro-uttam-nagar-new-delhi?utm_source=api_basic_user&utm_medium=api&utm_campaign=v2.1",
"address": "Main Najafgarh Road, Opposite Metro Pillar 655, Uttam Nagar, New Delhi",
"locality": "Uttam Nagar",
"city": "New Delhi",
"latitude": "28.6240997620",
"longitude": "77.0632083714",
"zipcode": "110059",
"country_id": "1",
"average_cost_for_two": "700",
"currency": "Rs.",
"menu_url": "https://www.zomato.com/ncr/metro-uttam-nagar-new-delhi/menu#tabtop?utm_source=api_basic_user&utm_medium=api&utm_campaign=v2.1",
"aggregate_rating": "2.5",
"rating_text": "Average",
"votes": "78",
"cuisines": "Chinese, North Indian, Mughlai"},
 {
"name": "Polka Cakes & Coffee",
"url": "https://www.zomato.com/ncr/polka-cakes-coffee-uttam-nagar-new-delhi?utm_source=api_basic_user&utm_medium=api&utm_campaign=v2.1",
"address": "F-160, Arya Samaj Road, Uttam Nagar, New Delhi",
"locality": "Uttam Nagar",
"city": "New Delhi",
"latitude": "28.6208303413",
"longitude": "77.0602026209",
"zipcode": "110059",
"country_id": "1",
"average_cost_for_two": "400",
"currency": "Rs.",
"menu_url": "https://www.zomato.com/ncr/polka-cakes-coffee-uttam-nagar-new-delhi/menu#tabtop?utm_source=api_basic_user&utm_medium=api&utm_campaign=v2.1",
"aggregate_rating": "3.4",
"rating_text": "Average",
"votes": "52",
"cuisines": "Bakery, Fast Food, Chinese"},
 {
"name": "Himalaya Sagar",
"url": "https://www.zomato.com/ncr/himalaya-sagar-uttam-nagar-new-delhi?utm_source=api_basic_user&utm_medium=api&utm_campaign=v2.1",
"address": "A-1, Milap Nagar, Uttam Nagar, New Delhi",
"locality": "Uttam Nagar",
"city": "New Delhi",
"latitude": "28.6237183496",
"longitude": "77.0645558462",
"zipcode": "0",
"country_id": "1",
"average_cost_for_two": "400",
"currency": "Rs.",
"menu_url": "https://www.zomato.com/ncr/himalaya-sagar-uttam-nagar-new-delhi/menu#tabtop?utm_source=api_basic_user&utm_medium=api&utm_campaign=v2.1",
"aggregate_rating": "2.4",
"rating_text": "Poor",
"votes": "51",
"cuisines": "North Indian, South Indian, Chinese"},
 {
"name": "Domino's Pizza",
"url": "https://www.zomato.com/ncr/dominos-pizza-1-uttam-nagar-new-delhi?utm_source=api_basic_user&utm_medium=api&utm_campaign=v2.1",
"address": "Ground Floor, U-22 CGS & U-22 EGS, West Metro Station, Uttam Nagar, New Delhi",
"locality": "Uttam Nagar",
"city": "New Delhi",
"latitude": "28.6217730068",
"longitude": "77.0558574423",
"zipcode": "0",
"country_id": "1",
"average_cost_for_two": "700",
"currency": "Rs.",
"menu_url": "https://www.zomato.com/ncr/dominos-pizza-1-uttam-nagar-new-delhi/menu#tabtop?utm_source=api_basic_user&utm_medium=api&utm_campaign=v2.1",
"aggregate_rating": "3.2",
"rating_text": "Average",
"votes": "53",
"cuisines": "Pizza, Fast Food"},
 {
"name": "Kali Ghata",
"url": "https://www.zomato.com/ncr/kali-ghata-uttam-nagar-new-delhi?utm_source=api_basic_user&utm_medium=api&utm_campaign=v2.1",
"address": "Arya Samaj Road, Uttam Nagar, New Delhi",
"locality": "Uttam Nagar",
"city": "New Delhi",
"latitude": "28.6198032001",
"longitude": "77.0605194569",
"zipcode": "0",
"country_id": "1",
"average_cost_for_two": "200",
"currency": "Rs.",
"menu_url": "https://www.zomato.com/ncr/kali-ghata-uttam-nagar-new-delhi/menu#tabtop?utm_source=api_basic_user&utm_medium=api&utm_campaign=v2.1",
"aggregate_rating": "3.4",
"rating_text": "Average",
"votes": "57",
"cuisines": "Mithai"},
 {
"name": "Dawat E Darbar",
"url": "https://www.zomato.com/ncr/dawat-e-darbar-uttam-nagar-new-delhi?utm_source=api_basic_user&utm_medium=api&utm_campaign=v2.1",
"address": "Ground Floor, Shop 1, Om Vihar, Opposite Pillar 704, Nazafgarh Road, Uttam Nagar West, Uttam Nagar, New Delhi",
"locality": "Uttam Nagar",
"city": "New Delhi",
"latitude": "28.6209186338",
"longitude": "77.0517224818",
"zipcode": "",
"country_id": "1",
"average_cost_for_two": "600",
"currency": "Rs.",
"menu_url": "https://www.zomato.com/ncr/dawat-e-darbar-uttam-nagar-new-delhi/menu#tabtop?utm_source=api_basic_user&utm_medium=api&utm_campaign=v2.1",
"aggregate_rating": "3.1",
"rating_text": "Average",
"votes": "36",
"cuisines": "North Indian, Chinese"},
 {
"name": "Da Pizza Corner",
"url": "https://www.zomato.com/ncr/da-pizza-corner-uttam-nagar-new-delhi?utm_source=api_basic_user&utm_medium=api&utm_campaign=v2.1",
"address": "G-126, Arya Samaj Road, Opposite Sanjeevani Public School, Uttam Nagar West, Uttam Nagar, New Delhi",
"locality": "Uttam Nagar",
"city": "New Delhi",
"latitude": "28.6212600307",
"longitude": "77.0604681596",
"zipcode": "",
"country_id": "1",
"average_cost_for_two": "600",
"currency": "Rs.",
"menu_url": "https://www.zomato.com/ncr/da-pizza-corner-uttam-nagar-new-delhi/menu#tabtop?utm_source=api_basic_user&utm_medium=api&utm_campaign=v2.1",
"aggregate_rating": "2.7",
"rating_text": "Average",
"votes": "24",
"cuisines": "Pizza"},
 {
"name": "Modern Zaika",
"url": "https://www.zomato.com/ncr/modern-zaika-uttam-nagar-new-delhi?utm_source=api_basic_user&utm_medium=api&utm_campaign=v2.1",
"address": "A-11, Milap Nagar, Uttam Nagar, New Delhi",
"locality": "Uttam Nagar",
"city": "New Delhi",
"latitude": "28.6239952858",
"longitude": "77.0635681227",
"zipcode": "",
"country_id": "1",
"average_cost_for_two": "550",
"currency": "Rs.",
"menu_url": "https://www.zomato.com/ncr/modern-zaika-uttam-nagar-new-delhi/menu#tabtop?utm_source=api_basic_user&utm_medium=api&utm_campaign=v2.1",
"aggregate_rating": "2.5",
"rating_text": "Average",
"votes": "25",
"cuisines": "North Indian, Chinese"},
 {
"name": "Roast It",
"url": "https://www.zomato.com/ncr/roast-it-uttam-nagar-new-delhi?utm_source=api_basic_user&utm_medium=api&utm_campaign=v2.1",
"address": "B-1, Rama Park Road, Mohan Garden, Uttam Nagar, New Delhi",
"locality": "Uttam Nagar",
"city": "New Delhi",
"latitude": "28.6201228217",
"longitude": "77.0367906243",
"zipcode": "",
"country_id": "1",
"average_cost_for_two": "600",
"currency": "Rs.",
"menu_url": "https://www.zomato.com/ncr/roast-it-uttam-nagar-new-delhi/menu#tabtop?utm_source=api_basic_user&utm_medium=api&utm_campaign=v2.1",
"aggregate_rating": "3.1",
"rating_text": "Average",
"votes": "24",
"cuisines": "Chinese, North Indian"},
 {
"name": "Angithi",
"url": "https://www.zomato.com/ncr/angithi-mayur-vihar-new-delhi?utm_source=api_basic_user&utm_medium=api&utm_campaign=v2.1",
"address": "D-33, Acharya Niketan, Near Kukreja Hospital, Mayur Vihar Phase 1, New Delhi",
"locality": "Mayur Vihar Phase 1",
"city": "New Delhi",
"latitude": "28.6092610309",
"longitude": "77.2950548306",
"zipcode": "0",
"country_id": "1",
"average_cost_for_two": "650",
"currency": "Rs.",
"menu_url": "https://www.zomato.com/ncr/angithi-mayur-vihar-new-delhi/menu#tabtop?utm_source=api_basic_user&utm_medium=api&utm_campaign=v2.1",
"aggregate_rating": "3.6",
"rating_text": "Good",
"votes": "212",
"cuisines": "North Indian, Chinese, Italian, Continental"},
 {
"name": "DCK- Dana Choga's Kitchen",
"url": "https://www.zomato.com/ncr/dck-dana-chogas-kitchen-mayur-vihar-new-delhi?utm_source=api_basic_user&utm_medium=api&utm_campaign=v2.1",
"address": "A-8, Acharya Niketan Market, Mayur Vihar Phase 1, New Delhi",
"locality": "Mayur Vihar Phase 1",
"city": "New Delhi",
"latitude": "28.6078378836",
"longitude": "77.2937831283",
"zipcode": "",
"country_id": "1",
"average_cost_for_two": "800",
"currency": "Rs.",
"menu_url": "https://www.zomato.com/ncr/dck-dana-chogas-kitchen-mayur-vihar-new-delhi/menu#tabtop?utm_source=api_basic_user&utm_medium=api&utm_campaign=v2.1",
"aggregate_rating": "3.5",
"rating_text": "Good",
"votes": "191",
"cuisines": "North Indian, Mughlai"},
 {
"name": "Subway",
"url": "https://www.zomato.com/ncr/subway-mayur-vihar-new-delhi?utm_source=api_basic_user&utm_medium=api&utm_campaign=v2.1",
"address": "G-7-9, Sikka Plaza 2 , Near Ahlcon Public School, Mayur Vihar Phase 1, New Delhi",
"locality": "Mayur Vihar Phase 1",
"city": "New Delhi",
"latitude": "28.6069722120",
"longitude": "77.2905172035",
"zipcode": "110091",
"country_id": "1",
"average_cost_for_two": "500",
"currency": "Rs.",
"menu_url": "https://www.zomato.com/ncr/subway-mayur-vihar-new-delhi/menu#tabtop?utm_source=api_basic_user&utm_medium=api&utm_campaign=v2.1",
"aggregate_rating": "3.6",
"rating_text": "Good",
"votes": "115",
"cuisines": "American, Fast Food, Salad, Healthy Food"},
 {
"name": "Baked Buns",
"url": "https://www.zomato.com/ncr/baked-buns-mayur-vihar-new-delhi?utm_source=api_basic_user&utm_medium=api&utm_campaign=v2.1",
"address": "Shop 12, BR Complex, Near Alchon International School, Opposite UNA Enclave, Mayur Vihar Phase 1, New Delhi",
"locality": "Mayur Vihar Phase 1",
"city": "New Delhi",
"latitude": "28.6113275773",
"longitude": "77.2888052836",
"zipcode": "",
"country_id": "1",
"average_cost_for_two": "500",
"currency": "Rs.",
"menu_url": "https://www.zomato.com/ncr/baked-buns-mayur-vihar-new-delhi/menu#tabtop?utm_source=api_basic_user&utm_medium=api&utm_campaign=v2.1",
"aggregate_rating": "3.6",
"rating_text": "Good",
"votes": "153",
"cuisines": "Fast Food"},
 {
"name": "Domino's Pizza",
"url": "https://www.zomato.com/ncr/dominos-pizza-mayur-vihar-new-delhi?utm_source=api_basic_user&utm_medium=api&utm_campaign=v2.1",
"address": "1/1-A & 2, Anupama Arcade, Mayur Vihar Phase 1, New Delhi",
"locality": "Mayur Vihar Phase 1",
"city": "New Delhi",
"latitude": "28.5981428968",
"longitude": "77.2951735184",
"zipcode": "0",
"country_id": "1",
"average_cost_for_two": "700",
"currency": "Rs.",
"menu_url": "https://www.zomato.com/ncr/dominos-pizza-mayur-vihar-new-delhi/menu#tabtop?utm_source=api_basic_user&utm_medium=api&utm_campaign=v2.1",
"aggregate_rating": "2.4",
"rating_text": "Poor",
"votes": "125",
"cuisines": "Pizza, Fast Food"},
 {
"name": "Cafe on 3 - Holiday Inn",
"url": "https://www.zomato.com/ncr/cafe-on-3-holiday-inn-mayur-vihar-new-delhi?utm_source=api_basic_user&utm_medium=api&utm_campaign=v2.1",
"address": "Holiday Inn, 13-A, District Centre, Mayur Vihar Phase 1, New Delhi",
"locality": "Mayur Vihar Phase 1",
"city": "New Delhi",
"latitude": "28.5903760000",
"longitude": "77.2984010000",
"zipcode": "",
"country_id": "1",
"average_cost_for_two": "2000",
"currency": "Rs.",
"menu_url": "https://www.zomato.com/ncr/cafe-on-3-holiday-inn-mayur-vihar-new-delhi/menu#tabtop?utm_source=api_basic_user&utm_medium=api&utm_campaign=v2.1",
"aggregate_rating": "3.5",
"rating_text": "Good",
"votes": "162",
"cuisines": "Continental, Chinese, Thai, Mediterranean"},
 {
"name": "The Kylin Experience - Holiday Inn",
"url": "https://www.zomato.com/ncr/the-kylin-experience-holiday-inn-mayur-vihar-new-delhi?utm_source=api_basic_user&utm_medium=api&utm_campaign=v2.1",
"address": "Holiday Inn, 13 A, District Centre, Mayur Vihar Phase 1, New Delhi",
"locality": "Mayur Vihar Phase 1",
"city": "New Delhi",
"latitude": "28.5903760000",
"longitude": "77.2984010000",
"zipcode": "",
"country_id": "1",
"average_cost_for_two": "1800",
"currency": "Rs.",
"menu_url": "https://www.zomato.com/ncr/the-kylin-experience-holiday-inn-mayur-vihar-new-delhi/menu#tabtop?utm_source=api_basic_user&utm_medium=api&utm_campaign=v2.1",
"aggregate_rating": "3.8",
"rating_text": "Good",
"votes": "104",
"cuisines": "Japanese, Chinese, Asian, Thai"},
 {
"name": "Neel Giri",
"url": "https://www.zomato.com/ncr/neel-giri-mayur-vihar-new-delhi?utm_source=api_basic_user&utm_medium=api&utm_campaign=v2.1",
"address": "P-19/20, Mayur Vihar Phase 1, New Delhi",
"locality": "Mayur Vihar Phase 1",
"city": "New Delhi",
"latitude": "28.6085207613",
"longitude": "77.2929563373",
"zipcode": "0",
"country_id": "1",
"average_cost_for_two": "600",
"currency": "Rs.",
"menu_url": "https://www.zomato.com/ncr/neel-giri-mayur-vihar-new-delhi/menu#tabtop?utm_source=api_basic_user&utm_medium=api&utm_campaign=v2.1",
"aggregate_rating": "3.6",
"rating_text": "Good",
"votes": "185",
"cuisines": "South Indian, North Indian"},
 {
"name": "Sagar Ratna",
"url": "https://www.zomato.com/ncr/sagar-ratna-mayur-vihar-new-delhi?utm_source=api_basic_user&utm_medium=api&utm_campaign=v2.1",
"address": "A-1, 1st Floor, Acharya Niketan, Mayur Vihar Phase 1, New Delhi",
"locality": "Mayur Vihar Phase 1",
"city": "New Delhi",
"latitude": "28.6089116478",
"longitude": "77.2926569358",
"zipcode": "0",
"country_id": "1",
"average_cost_for_two": "600",
"currency": "Rs.",
"menu_url": "https://www.zomato.com/ncr/sagar-ratna-mayur-vihar-new-delhi/menu#tabtop?utm_source=api_basic_user&utm_medium=api&utm_campaign=v2.1",
"aggregate_rating": "2.6",
"rating_text": "Average",
"votes": "134",
"cuisines": "South Indian, North Indian, Chinese"},
 {
"name": "Rude Lounge",
"url": "https://www.zomato.com/mumbai/rude-lounge-manpada-thane-west?utm_source=api_basic_user&utm_medium=api&utm_campaign=v2.1",
"address": "Cosmos Heritage Complex, 1st Floor, Unit No 2, Manpada, Thane West, Thane West Thane",
"locality": "Manpada, Thane West",
"city": "Mumbai",
"latitude": "19.2364374917",
"longitude": "72.9699247330",
"zipcode": "",
"country_id": "1",
"average_cost_for_two": "1600",
"currency": "Rs.",
"menu_url": "https://www.zomato.com/mumbai/rude-lounge-manpada-thane-west/menu#tabtop?utm_source=api_basic_user&utm_medium=api&utm_campaign=v2.1",
"aggregate_rating": "3.8",
"rating_text": "Good",
"votes": "856",
"cuisines": "North Indian, Italian, Chinese, Continental"},
 {
"name": "Coco & Basil",
"url": "https://www.zomato.com/mumbai/coco-basil-manpada-thane-west?utm_source=api_basic_user&utm_medium=api&utm_campaign=v2.1",
"address": "17, Sunrise Shopping Centre, Manpada, Thane West",
"locality": "Manpada, Thane West",
"city": "Mumbai",
"latitude": "19.2273476321",
"longitude": "72.9742756113",
"zipcode": "",
"country_id": "1",
"average_cost_for_two": "550",
"currency": "Rs.",
"menu_url": "https://www.zomato.com/mumbai/coco-basil-manpada-thane-west/menu#tabtop?utm_source=api_basic_user&utm_medium=api&utm_campaign=v2.1",
"aggregate_rating": "4.2",
"rating_text": "Very Good",
"votes": "149",
"cuisines": "Cafe, Italian"},
 {
"name": "D'Crepes Cafe",
"url": "https://www.zomato.com/mumbai/dcrepes-cafe-vasant-vihar-thane-west?utm_source=api_basic_user&utm_medium=api&utm_campaign=v2.1",
"address": "21/22, Block 1, Emerald Plaza, Hiranandani Meadows, Off Pokhran 2, Vasant Vihar, Thane West",
"locality": "Vasant Vihar, Thane West",
"city": "Mumbai",
"latitude": "19.2266863073",
"longitude": "72.9704641923",
"zipcode": "",
"country_id": "1",
"average_cost_for_two": "1000",
"currency": "Rs.",
"menu_url": "https://www.zomato.com/mumbai/dcrepes-cafe-vasant-vihar-thane-west/menu#tabtop?utm_source=api_basic_user&utm_medium=api&utm_campaign=v2.1",
"aggregate_rating": "4.4",
"rating_text": "Very Good",
"votes": "1005",
"cuisines": "Cafe, Salad, Healthy Food"},
 {
"name": "Mama Pondo Express",
"url": "https://www.zomato.com/mumbai/mama-pondo-express-manpada-thane-west?utm_source=api_basic_user&utm_medium=api&utm_campaign=v2.1",
"address": "Shop 14, Sunrise Shopping Centre, Near Hyde Park, GB Road, Manpada, Thane West",
"locality": "Manpada, Thane West",
"city": "Mumbai",
"latitude": "19.2271380000",
"longitude": "72.9739810000",
"zipcode": "",
"country_id": "1",
"average_cost_for_two": "700",
"currency": "Rs.",
"menu_url": "https://www.zomato.com/mumbai/mama-pondo-express-manpada-thane-west/menu#tabtop?utm_source=api_basic_user&utm_medium=api&utm_campaign=v2.1",
"aggregate_rating": "3.9",
"rating_text": "Good",
"votes": "216",
"cuisines": "Chinese, Thai"},
 {
"name": "China Bistro",
"url": "https://www.zomato.com/mumbai/china-bistro-vasant-vihar-thane-west?utm_source=api_basic_user&utm_medium=api&utm_campaign=v2.1",
"address": "Ground Floor, Infinity Shopping Complex, Vasant Vihar, Thane West",
"locality": "Vasant Vihar, Thane West",
"city": "Mumbai",
"latitude": "19.2198753616",
"longitude": "72.9702985659",
"zipcode": "0",
"country_id": "1",
"average_cost_for_two": "1500",
"currency": "Rs.",
"menu_url": "https://www.zomato.com/mumbai/china-bistro-vasant-vihar-thane-west/menu#tabtop?utm_source=api_basic_user&utm_medium=api&utm_campaign=v2.1",
"aggregate_rating": "4.1",
"rating_text": "Very Good",
"votes": "905",
"cuisines": "Chinese, Thai, Asian"},
 {
"name": "The WaterHouse Deli",
"url": "https://www.zomato.com/mumbai/the-waterhouse-deli-manpada-thane-west?utm_source=api_basic_user&utm_medium=api&utm_campaign=v2.1",
"address": "253, Near Om Shiv Building, Next to R-Mall, GB Road, Manpada, Thane West",
"locality": "Manpada, Thane West",
"city": "Mumbai",
"latitude": "19.2310350468",
"longitude": "72.9772461578",
"zipcode": "",
"country_id": "1",
"average_cost_for_two": "1100",
"currency": "Rs.",
"menu_url": "https://www.zomato.com/mumbai/the-waterhouse-deli-manpada-thane-west/menu#tabtop?utm_source=api_basic_user&utm_medium=api&utm_campaign=v2.1",
"aggregate_rating": "3.5",
"rating_text": "Good",
"votes": "140",
"cuisines": "Healthy Food, Continental, Mediterranean, Burger, Cafe, Italian, Bakery, European"},
 {
"name": "Caf 12",
"url": "https://www.zomato.com/mumbai/caf-12-vasant-vihar-thane-west?utm_source=api_basic_user&utm_medium=api&utm_campaign=v2.1",
"address": "Vasant Vihar Club House, Vasant Vihar, Thane West",
"locality": "Vasant Vihar, Thane West",
"city": "Mumbai",
"latitude": "19.2252405008",
"longitude": "72.9661431536",
"zipcode": "",
"country_id": "1",
"average_cost_for_two": "1100",
"currency": "Rs.",
"menu_url": "https://www.zomato.com/mumbai/caf-12-vasant-vihar-thane-west/menu#tabtop?utm_source=api_basic_user&utm_medium=api&utm_campaign=v2.1",
"aggregate_rating": "3.3",
"rating_text": "Average",
"votes": "104",
"cuisines": "Chinese, Continental, North Indian, Indian"},
 {
"name": "The Kitchen",
"url": "https://www.zomato.com/mumbai/the-kitchen-manpada-thane-west?utm_source=api_basic_user&utm_medium=api&utm_campaign=v2.1",
"address": "Shop no. 33 & 38, Vivekanand Udyog Sankul, opp. Vasundhara complex, Besides Sai Vihar Bar and Restaurant, Vasant Vihar Main road. Thane (w)",
"locality": "Manpada, Thane West",
"city": "Mumbai",
"latitude": "19.2235933359",
"longitude": "72.9695314541",
"zipcode": "400601",
"country_id": "1",
"average_cost_for_two": "600",
"currency": "Rs.",
"menu_url": "https://www.zomato.com/mumbai/the-kitchen-manpada-thane-west/menu#tabtop?utm_source=api_basic_user&utm_medium=api&utm_campaign=v2.1",
"aggregate_rating": "3.6",
"rating_text": "Good",
"votes": "132",
"cuisines": "Biryani, Chinese, North Indian, Seafood, Malwani"},
 {
"name": "Pop Tate's",
"url": "https://www.zomato.com/mumbai/pop-tates-manpada-thane-west?utm_source=api_basic_user&utm_medium=api&utm_campaign=v2.1",
"address": "Ground Floor, R Mall, Manpada, Thane West",
"locality": "Manpada, Thane West",
"city": "Mumbai",
"latitude": "19.2302597722",
"longitude": "72.9766181856",
"zipcode": "0",
"country_id": "1",
"average_cost_for_two": "1600",
"currency": "Rs.",
"menu_url": "https://www.zomato.com/mumbai/pop-tates-manpada-thane-west/menu#tabtop?utm_source=api_basic_user&utm_medium=api&utm_campaign=v2.1",
"aggregate_rating": "3.9",
"rating_text": "Good",
"votes": "485",
"cuisines": "European, Italian, Continental, Mexican"},
 {
"name": "Foodelicious",
"url": "https://www.zomato.com/ncr/foodelicious-sector-55-noida?utm_source=api_basic_user&utm_medium=api&utm_campaign=v2.1",
"address": "E-4/5, Om Sai Market, Sector 55, Noida",
"locality": "Sector 55",
"city": "Noida",
"latitude": "28.6033328402",
"longitude": "77.3427196965",
"zipcode": "",
"country_id": "1",
"average_cost_for_two": "500",
"currency": "Rs.",
"menu_url": "https://www.zomato.com/ncr/foodelicious-sector-55-noida/menu#tabtop?utm_source=api_basic_user&utm_medium=api&utm_campaign=v2.1",
"aggregate_rating": "3.2",
"rating_text": "Average",
"votes": "114",
"cuisines": "North Indian, Chinese"},
 {
"name": "Baked Buns",
"url": "https://www.zomato.com/ncr/baked-buns-mayur-vihar-phase-3-new-delhi?utm_source=api_basic_user&utm_medium=api&utm_campaign=v2.1",
"address": "C-4/79, Near Indian Oil Petrol Pump, Mayur Vihar Phase 3, New Delhi",
"locality": "Mayur Vihar Phase 3",
"city": "New Delhi",
"latitude": "28.6041429087",
"longitude": "77.3348329961",
"zipcode": "",
"country_id": "1",
"average_cost_for_two": "500",
"currency": "Rs.",
"menu_url": "https://www.zomato.com/ncr/baked-buns-mayur-vihar-phase-3-new-delhi/menu#tabtop?utm_source=api_basic_user&utm_medium=api&utm_campaign=v2.1",
"aggregate_rating": "3.5",
"rating_text": "Good",
"votes": "82",
"cuisines": "Fast Food"},
 {
"name": "Domino's Pizza",
"url": "https://www.zomato.com/ncr/dominos-pizza-1-vasundhara-enclave-new-delhi?utm_source=api_basic_user&utm_medium=api&utm_campaign=v2.1",
"address": "1, 1st Floor, CSC Market, Near City Apartments, Vasundhara Enclave, New Delhi",
"locality": "Vasundhara Enclave",
"city": "New Delhi",
"latitude": "28.6012237483",
"longitude": "77.3225223273",
"zipcode": "0",
"country_id": "1",
"average_cost_for_two": "700",
"currency": "Rs.",
"menu_url": "https://www.zomato.com/ncr/dominos-pizza-1-vasundhara-enclave-new-delhi/menu#tabtop?utm_source=api_basic_user&utm_medium=api&utm_campaign=v2.1",
"aggregate_rating": "3.2",
"rating_text": "Average",
"votes": "74",
"cuisines": "Pizza, Fast Food"},
 {
"name": "Sub Hub",
"url": "https://www.zomato.com/ncr/sub-hub-mayur-vihar-phase-3-new-delhi?utm_source=api_basic_user&utm_medium=api&utm_campaign=v2.1",
"address": "shop no-1.1b pocketA-2, Mayur Vihar Phase 3, New Delhi",
"locality": "Mayur Vihar Phase 3",
"city": "New Delhi",
"latitude": "28.6108907832",
"longitude": "77.3355012015",
"zipcode": "110096",
"country_id": "1",
"average_cost_for_two": "350",
"currency": "Rs.",
"menu_url": "https://www.zomato.com/ncr/sub-hub-mayur-vihar-phase-3-new-delhi/menu#tabtop?utm_source=api_basic_user&utm_medium=api&utm_campaign=v2.1",
"aggregate_rating": "3.4",
"rating_text": "Average",
"votes": "68",
"cuisines": "Fast Food"},
 {
"name": "Clever Fox Cafe",
"url": "https://www.zomato.com/ncr/clever-fox-cafe-mayur-vihar-phase-3-new-delhi?utm_source=api_basic_user&utm_medium=api&utm_campaign=v2.1",
"address": "Red Fox Hotel, Community Center, Mayur Vihar Phase 3, New Delhi",
"locality": "Mayur Vihar Phase 3",
"city": "New Delhi",
"latitude": "28.6070140093",
"longitude": "77.3326392844",
"zipcode": "0",
"country_id": "1",
"average_cost_for_two": "900",
"currency": "Rs.",
"menu_url": "https://www.zomato.com/ncr/clever-fox-cafe-mayur-vihar-phase-3-new-delhi/menu#tabtop?utm_source=api_basic_user&utm_medium=api&utm_campaign=v2.1",
"aggregate_rating": "3.0",
"rating_text": "Average",
"votes": "23",
"cuisines": "North Indian, Continental, South Indian, Chinese"},
 {
"name": "Raj Restaurant",
"url": "https://www.zomato.com/ncr/raj-restaurant-mayur-vihar-phase-3-new-delhi?utm_source=api_basic_user&utm_medium=api&utm_campaign=v2.1",
"address": "1, CSC II, DDA Market, Near Bank of Baroda, Mayur Vihar Phase 3, New Delhi",
"locality": "Mayur Vihar Phase 3",
"city": "New Delhi",
"latitude": "28.6116083725",
"longitude": "77.3358465359",
"zipcode": "0",
"country_id": "1",
"average_cost_for_two": "500",
"currency": "Rs.",
"menu_url": "https://www.zomato.com/ncr/raj-restaurant-mayur-vihar-phase-3-new-delhi/menu#tabtop?utm_source=api_basic_user&utm_medium=api&utm_campaign=v2.1",
"aggregate_rating": "2.6",
"rating_text": "Average",
"votes": "47",
"cuisines": "North Indian, Chinese, South Indian"},
 {
"name": "Biraj Fast Food",
"url": "https://www.zomato.com/ncr/biraj-fast-food-mayur-vihar-phase-3-new-delhi?utm_source=api_basic_user&utm_medium=api&utm_campaign=v2.1",
"address": "110-B, Pocket A-1, DDA Market, Mayur Vihar Phase 3, New Delhi",
"locality": "Mayur Vihar Phase 3",
"city": "New Delhi",
"latitude": "28.6102441246",
"longitude": "77.3365834728",
"zipcode": "",
"country_id": "1",
"average_cost_for_two": "300",
"currency": "Rs.",
"menu_url": "https://www.zomato.com/ncr/biraj-fast-food-mayur-vihar-phase-3-new-delhi/menu#tabtop?utm_source=api_basic_user&utm_medium=api&utm_campaign=v2.1",
"aggregate_rating": "3.0",
"rating_text": "Average",
"votes": "38",
"cuisines": "Chinese, Fast Food"},
 {
"name": "Pizza Castle",
"url": "https://www.zomato.com/ncr/pizza-castle-mayur-vihar-phase-3-new-delhi?utm_source=api_basic_user&utm_medium=api&utm_campaign=v2.1",
"address": "80/A, Pocket A, LIG Flat, Mayur Vihar Phase 3, New Delhi",
"locality": "Mayur Vihar Phase 3",
"city": "New Delhi",
"latitude": "28.6102850375",
"longitude": "77.3351632431",
"zipcode": "",
"country_id": "1",
"average_cost_for_two": "500",
"currency": "Rs.",
"menu_url": "https://www.zomato.com/ncr/pizza-castle-mayur-vihar-phase-3-new-delhi/menu#tabtop?utm_source=api_basic_user&utm_medium=api&utm_campaign=v2.1",
"aggregate_rating": "2.8",
"rating_text": "Average",
"votes": "26",
"cuisines": "Pizza, Fast Food"},
 {
"name": "Muradabadi Chicken Biryani",
"url": "https://www.zomato.com/ncr/muradabadi-chicken-biryani-mayur-vihar-phase-3-new-delhi?utm_source=api_basic_user&utm_medium=api&utm_campaign=v2.1",
"address": "C-1/30, New Kondli, Near Mangal Bazar Chowk, Mayur Vihar Phase 3, New Delhi",
"locality": "Mayur Vihar Phase 3",
"city": "New Delhi",
"latitude": "28.6054483655",
"longitude": "77.3333232477",
"zipcode": "",
"country_id": "1",
"average_cost_for_two": "450",
"currency": "Rs.",
"menu_url": "https://www.zomato.com/ncr/muradabadi-chicken-biryani-mayur-vihar-phase-3-new-delhi/menu#tabtop?utm_source=api_basic_user&utm_medium=api&utm_campaign=v2.1",
"aggregate_rating": "3.3",
"rating_text": "Average",
"votes": "25",
"cuisines": "North Indian"},
 {
"name": "TLC Kitchen",
"url": "https://www.zomato.com/tlc-kitchen?utm_source=api_basic_user&utm_medium=api&utm_campaign=v2.1",
"address": "Location varies, Dr. Zakir Hussain Marg, New Delhi",
"locality": "Dr. Zakir Hussain Marg",
"city": "New Delhi",
"latitude": "0.0000000000",
"longitude": "0.0000000000",
"zipcode": "",
"country_id": "1",
"average_cost_for_two": "600",
"currency": "Rs.",
"menu_url": "https://www.zomato.com/tlc-kitchen/menu#tabtop?utm_source=api_basic_user&utm_medium=api&utm_campaign=v2.1",
"aggregate_rating": "0",
"rating_text": "Not rated",
"votes": "2",
"cuisines": "Healthy Food"},
 {
"name": "Food Cloud",
"url": "https://www.zomato.com/food-cloud?utm_source=api_basic_user&utm_medium=api&utm_campaign=v2.1",
"address": "Location Varies, Aaya Nagar, New Delhi",
"locality": "Aaya Nagar",
"city": "New Delhi",
"latitude": "0.0000000000",
"longitude": "0.0000000000",
"zipcode": "",
"country_id": "1",
"average_cost_for_two": "500",
"currency": "Rs.",
"menu_url": "https://www.zomato.com/food-cloud/menu#tabtop?utm_source=api_basic_user&utm_medium=api&utm_campaign=v2.1",
"aggregate_rating": "0",
"rating_text": "Not rated",
"votes": "0",
"cuisines": "Cuisine Varies"},
 {
"name": "Crunchy Burger",
"url": "https://www.zomato.com/ncr/crunchy-burger-azadpur-new-delhi?utm_source=api_basic_user&utm_medium=api&utm_campaign=v2.1",
"address": "137/7, Main 100 Ft Road, Burari, Azadpur, New Delhi",
"locality": "Azadpur",
"city": "New Delhi",
"latitude": "0.0000000000",
"longitude": "0.0000000000",
"zipcode": "",
"country_id": "1",
"average_cost_for_two": "250",
"currency": "Rs.",
"menu_url": "https://www.zomato.com/ncr/crunchy-burger-azadpur-new-delhi/menu#tabtop?utm_source=api_basic_user&utm_medium=api&utm_campaign=v2.1",
"aggregate_rating": "0",
"rating_text": "Not rated",
"votes": "0",
"cuisines": "Burger, Fast Food"},
 {
"name": "A-One Muradabad ki Mashoor",
"url": "https://www.zomato.com/ncr/a-one-muradabad-ki-mashoor-azadpur-new-delhi?utm_source=api_basic_user&utm_medium=api&utm_campaign=v2.1",
"address": "454/1, Shanti Bhawan, Azadpur, New Delhi",
"locality": "Azadpur",
"city": "New Delhi",
"latitude": "0.0000000000",
"longitude": "0.0000000000",
"zipcode": "",
"country_id": "1",
"average_cost_for_two": "300",
"currency": "Rs.",
"menu_url": "https://www.zomato.com/ncr/a-one-muradabad-ki-mashoor-azadpur-new-delhi/menu#tabtop?utm_source=api_basic_user&utm_medium=api&utm_campaign=v2.1",
"aggregate_rating": "0",
"rating_text": "Not rated",
"votes": "0",
"cuisines": "Mughlai"},
 {
"name": "Sagar Ratna",
"url": "https://www.zomato.com/ncr/sagar-ratna-1-defence-colony-new-delhi?utm_source=api_basic_user&utm_medium=api&utm_campaign=v2.1",
"address": "18, Defence Colony Market, Defence Colony, New Delhi",
"locality": "Defence Colony",
"city": "New Delhi",
"latitude": "28.5733403135",
"longitude": "77.2302442789",
"zipcode": "0",
"country_id": "1",
"average_cost_for_two": "600",
"currency": "Rs.",
"menu_url": "https://www.zomato.com/ncr/sagar-ratna-1-defence-colony-new-delhi/menu#tabtop?utm_source=api_basic_user&utm_medium=api&utm_campaign=v2.1",
"aggregate_rating": "4.0",
"rating_text": "Very Good",
"votes": "731",
"cuisines": "South Indian"},
 {
"name": "Kent's Fast Food",
"url": "https://www.zomato.com/ncr/kents-fast-food-defence-colony-new-delhi?utm_source=api_basic_user&utm_medium=api&utm_campaign=v2.1",
"address": "29, Defence Colony Market, Defence Colony, New Delhi",
"locality": "Defence Colony",
"city": "New Delhi",
"latitude": "28.5739963268",
"longitude": "77.2303545848",
"zipcode": "0",
"country_id": "1",
"average_cost_for_two": "500",
"currency": "Rs.",
"menu_url": "https://www.zomato.com/ncr/kents-fast-food-defence-colony-new-delhi/menu#tabtop?utm_source=api_basic_user&utm_medium=api&utm_campaign=v2.1",
"aggregate_rating": "3.7",
"rating_text": "Good",
"votes": "719",
"cuisines": "Burger, Fast Food"},
 {
"name": "RoadRomeo",
"url": "https://www.zomato.com/ncr/roadromeo-defence-colony-new-delhi?utm_source=api_basic_user&utm_medium=api&utm_campaign=v2.1",
"address": "47, Defence Colony Market, Defence Colony, New Delhi",
"locality": "Defence Colony",
"city": "New Delhi",
"latitude": "28.5707244638",
"longitude": "77.2303767130",
"zipcode": "",
"country_id": "1",
"average_cost_for_two": "1650",
"currency": "Rs.",
"menu_url": "https://www.zomato.com/ncr/roadromeo-defence-colony-new-delhi/menu#tabtop?utm_source=api_basic_user&utm_medium=api&utm_campaign=v2.1",
"aggregate_rating": "4.2",
"rating_text": "Very Good",
"votes": "394",
"cuisines": "Hyderabadi, Kashmiri, North Indian, Chinese"},
 {
"name": "1 Oak Cafe & Bar",
"url": "https://www.zomato.com/ncr/1-oak-cafe-bar-defence-colony-new-delhi?utm_source=api_basic_user&utm_medium=api&utm_campaign=v2.1",
"address": "Moolchand Flyover Complex, Defence Colony, New Delhi",
"locality": "Defence Colony",
"city": "New Delhi",
"latitude": "28.5664321976",
"longitude": "77.2336805239",
"zipcode": "",
"country_id": "1",
"average_cost_for_two": "1300",
"currency": "Rs.",
"menu_url": "https://www.zomato.com/ncr/1-oak-cafe-bar-defence-colony-new-delhi/menu#tabtop?utm_source=api_basic_user&utm_medium=api&utm_campaign=v2.1",
"aggregate_rating": "3.6",
"rating_text": "Good",
"votes": "709",
"cuisines": "Italian, Continental, Fast Food, Chinese"},
 {
"name": "Kathputli",
"url": "https://www.zomato.com/ncr/kathputli-defence-colony-new-delhi?utm_source=api_basic_user&utm_medium=api&utm_campaign=v2.1",
"address": "35, Defence Colony Market, Defence Colony, New Delhi",
"locality": "Defence Colony",
"city": "New Delhi",
"latitude": "28.5736730317",
"longitude": "77.2300243378",
"zipcode": "110024",
"country_id": "1",
"average_cost_for_two": "900",
"currency": "Rs.",
"menu_url": "https://www.zomato.com/ncr/kathputli-defence-colony-new-delhi/menu#tabtop?utm_source=api_basic_user&utm_medium=api&utm_campaign=v2.1",
"aggregate_rating": "4.1",
"rating_text": "Very Good",
"votes": "615",
"cuisines": "Rajasthani"},
 {
"name": "Jughead's Fast Food Corner",
"url": "https://www.zomato.com/ncr/jugheads-fast-food-corner-uday-park-new-delhi?utm_source=api_basic_user&utm_medium=api&utm_campaign=v2.1",
"address": "1 & 3, Main Market, Uday Park, New Delhi",
"locality": "Uday Park",
"city": "New Delhi",
"latitude": "28.5607421795",
"longitude": "77.2179074585",
"zipcode": "0",
"country_id": "1",
"average_cost_for_two": "500",
"currency": "Rs.",
"menu_url": "https://www.zomato.com/ncr/jugheads-fast-food-corner-uday-park-new-delhi/menu#tabtop?utm_source=api_basic_user&utm_medium=api&utm_campaign=v2.1",
"aggregate_rating": "3.6",
"rating_text": "Good",
"votes": "410",
"cuisines": "Chinese, Fast Food, North Indian"},
 {
"name": "Circus",
"url": "https://www.zomato.com/ncr/circus-south-extension-2-new-delhi?utm_source=api_basic_user&utm_medium=api&utm_campaign=v2.1",
"address": "D-14, 3rd Floor, South Extension 2, New Delhi",
"locality": "South Extension 2",
"city": "New Delhi",
"latitude": "28.5687040000",
"longitude": "77.2177380000",
"zipcode": "",
"country_id": "1",
"average_cost_for_two": "1250",
"currency": "Rs.",
"menu_url": "https://www.zomato.com/ncr/circus-south-extension-2-new-delhi/menu#tabtop?utm_source=api_basic_user&utm_medium=api&utm_campaign=v2.1",
"aggregate_rating": "4.4",
"rating_text": "Very Good",
"votes": "295",
"cuisines": "North Indian, Chinese, Italian"},
 {
"name": "Amici Cafe",
"url": "https://www.zomato.com/ncr/amici-cafe-defence-colony-new-delhi?utm_source=api_basic_user&utm_medium=api&utm_campaign=v2.1",
"address": "8, Defence Colony Market, Defence Colony, New Delhi",
"locality": "Defence Colony",
"city": "New Delhi",
"latitude": "28.5737787358",
"longitude": "77.2303036228",
"zipcode": "0",
"country_id": "1",
"average_cost_for_two": "1200",
"currency": "Rs.",
"menu_url": "https://www.zomato.com/ncr/amici-cafe-defence-colony-new-delhi/menu#tabtop?utm_source=api_basic_user&utm_medium=api&utm_campaign=v2.1",
"aggregate_rating": "3.7",
"rating_text": "Good",
"votes": "335",
"cuisines": "Cafe, Italian"},
 {
"name": "Def Col Social",
"url": "https://www.zomato.com/DefColSocial?utm_source=api_basic_user&utm_medium=api&utm_campaign=v2.1",
"address": "28-A, Defence Colony Market, Defence Colony, New Delhi",
"locality": "Defence Colony",
"city": "New Delhi",
"latitude": "28.5729071893",
"longitude": "77.2303220630",
"zipcode": "",
"country_id": "1",
"average_cost_for_two": "1600",
"currency": "Rs.",
"menu_url": "https://www.zomato.com/DefColSocial/menu#tabtop?utm_source=api_basic_user&utm_medium=api&utm_campaign=v2.1",
"aggregate_rating": "3.8",
"rating_text": "Good",
"votes": "704",
"cuisines": "Continental, American, Asian, North Indian"},
 {
"name": "Baking Bad",
"url": "https://www.zomato.com/ncr/baking-bad-greater-kailash-gk-1-new-delhi?utm_source=api_basic_user&utm_medium=api&utm_campaign=v2.1",
"address": "Greater Kailash (GK) 1, New Delhi",
"locality": "Greater Kailash (GK) 1",
"city": "New Delhi",
"latitude": "28.5486538088",
"longitude": "77.2422726452",
"zipcode": "",
"country_id": "1",
"average_cost_for_two": "1200",
"currency": "Rs.",
"menu_url": "https://www.zomato.com/ncr/baking-bad-greater-kailash-gk-1-new-delhi/menu#tabtop?utm_source=api_basic_user&utm_medium=api&utm_campaign=v2.1",
"aggregate_rating": "3.7",
"rating_text": "Good",
"votes": "581",
"cuisines": "Pizza, Italian"},
 {
"name": "Asian Haus",
"url": "https://www.zomato.com/ncr/asian-haus-1-east-of-kailash-new-delhi?utm_source=api_basic_user&utm_medium=api&utm_campaign=v2.1",
"address": "76/2, Near ISKCON Temple, Sant Nagar, East of Kailash, New Delhi",
"locality": "East of Kailash",
"city": "New Delhi",
"latitude": "28.5560260306",
"longitude": "77.2513576224",
"zipcode": "0",
"country_id": "1",
"average_cost_for_two": "1500",
"currency": "Rs.",
"menu_url": "https://www.zomato.com/ncr/asian-haus-1-east-of-kailash-new-delhi/menu#tabtop?utm_source=api_basic_user&utm_medium=api&utm_campaign=v2.1",
"aggregate_rating": "4.1",
"rating_text": "Very Good",
"votes": "608",
"cuisines": "Chinese, Thai, Asian, Malaysian, Vietnamese, Japanese"},
 {
"name": "The Flying Saucer Cafe",
"url": "https://www.zomato.com/ncr/the-flying-saucer-cafe-nehru-place-new-delhi?utm_source=api_basic_user&utm_medium=api&utm_campaign=v2.1",
"address": "Ground Floor, Epicuria Food Mall, Nehru Place Metro Station New Delhi, Nehru Place, New Delhi",
"locality": "Nehru Place",
"city": "New Delhi",
"latitude": "28.5512065944",
"longitude": "77.2521991655",
"zipcode": "",
"country_id": "1",
"average_cost_for_two": "2400",
"currency": "Rs.",
"menu_url": "https://www.zomato.com/ncr/the-flying-saucer-cafe-nehru-place-new-delhi/menu#tabtop?utm_source=api_basic_user&utm_medium=api&utm_campaign=v2.1",
"aggregate_rating": "4.5",
"rating_text": "Excellent",
"votes": "2544",
"cuisines": "Italian, Mediterranean, Continental"},
 {
"name": "The Colony Bistro",
"url": "https://www.zomato.com/ncr/the-colony-bistro-lajpat-nagar-4-new-delhi?utm_source=api_basic_user&utm_medium=api&utm_campaign=v2.1",
"address": "C-31, Amar Colony Main Market, Lajpat Nagar 4, New Delhi",
"locality": "Lajpat Nagar 4",
"city": "New Delhi",
"latitude": "28.5627499020",
"longitude": "77.2443758324",
"zipcode": "0",
"country_id": "1",
"average_cost_for_two": "1000",
"currency": "Rs.",
"menu_url": "https://www.zomato.com/ncr/the-colony-bistro-lajpat-nagar-4-new-delhi/menu#tabtop?utm_source=api_basic_user&utm_medium=api&utm_campaign=v2.1",
"aggregate_rating": "3.8",
"rating_text": "Good",
"votes": "697",
"cuisines": "American, North Indian, Chinese, Italian"},
 {
"name": "Bun Intended",
"url": "https://www.zomato.com/ncr/bun-intended-greater-kailash-gk-1-new-delhi?utm_source=api_basic_user&utm_medium=api&utm_campaign=v2.1",
"address": "Greater Kailash (GK) 1, New Delhi",
"locality": "Greater Kailash (GK) 1",
"city": "New Delhi",
"latitude": "28.5476339142",
"longitude": "77.2444579750",
"zipcode": "",
"country_id": "1",
"average_cost_for_two": "850",
"currency": "Rs.",
"menu_url": "https://www.zomato.com/ncr/bun-intended-greater-kailash-gk-1-new-delhi/menu#tabtop?utm_source=api_basic_user&utm_medium=api&utm_campaign=v2.1",
"aggregate_rating": "4.1",
"rating_text": "Very Good",
"votes": "205",
"cuisines": "Burger, American, Fast Food"},
 {
"name": "Speedy Chow",
"url": "https://www.zomato.com/ncr/speedy-chow-kailash-colony-new-delhi?utm_source=api_basic_user&utm_medium=api&utm_campaign=v2.1",
"address": "HS-17, Ground Floor, Kailash Colony Market, Kailash Colony, New Delhi",
"locality": "Kailash Colony",
"city": "New Delhi",
"latitude": "28.5529061592",
"longitude": "77.2408745438",
"zipcode": "",
"country_id": "1",
"average_cost_for_two": "850",
"currency": "Rs.",
"menu_url": "https://www.zomato.com/ncr/speedy-chow-kailash-colony-new-delhi/menu#tabtop?utm_source=api_basic_user&utm_medium=api&utm_campaign=v2.1",
"aggregate_rating": "3.5",
"rating_text": "Good",
"votes": "360",
"cuisines": "Chinese, Thai"},
 {
"name": "Taco Bell",
"url": "https://www.zomato.com/ncr/taco-bell-nehru-place-new-delhi?utm_source=api_basic_user&utm_medium=api&utm_campaign=v2.1",
"address": "Epicuria Food Mall, Nehru Place, New Delhi",
"locality": "Nehru Place",
"city": "New Delhi",
"latitude": "28.5512065944",
"longitude": "77.2521991655",
"zipcode": "",
"country_id": "1",
"average_cost_for_two": "700",
"currency": "Rs.",
"menu_url": "https://www.zomato.com/ncr/taco-bell-nehru-place-new-delhi/menu#tabtop?utm_source=api_basic_user&utm_medium=api&utm_campaign=v2.1",
"aggregate_rating": "3.8",
"rating_text": "Good",
"votes": "182",
"cuisines": "Mexican, Fast Food"},
 {
"name": "Oh! Calcutta",
"url": "https://www.zomato.com/ncr/oh-calcutta-nehru-place-new-delhi?utm_source=api_basic_user&utm_medium=api&utm_campaign=v2.1",
"address": "Ground Floor, E Block, Opposite Satyam Cinema, Nehru Place, New Delhi",
"locality": "Nehru Place",
"city": "New Delhi",
"latitude": "28.5509176862",
"longitude": "77.2507128865",
"zipcode": "0",
"country_id": "1",
"average_cost_for_two": "1400",
"currency": "Rs.",
"menu_url": "https://www.zomato.com/ncr/oh-calcutta-nehru-place-new-delhi/menu#tabtop?utm_source=api_basic_user&utm_medium=api&utm_campaign=v2.1",
"aggregate_rating": "4.4",
"rating_text": "Very Good",
"votes": "1154",
"cuisines": "Bengali, Seafood"},
 {
"name": "The Chatter House",
"url": "https://www.zomato.com/ncr/the-chatter-house-nehru-place-new-delhi?utm_source=api_basic_user&utm_medium=api&utm_campaign=v2.1",
"address": "Lower Basement, Epicuria Food Mall, Nehru Place Metro Station, Nehru Place, New Delhi",
"locality": "Nehru Place",
"city": "New Delhi",
"latitude": "28.5514050894",
"longitude": "77.2519416735",
"zipcode": "",
"country_id": "1",
"average_cost_for_two": "1800",
"currency": "Rs.",
"menu_url": "https://www.zomato.com/ncr/the-chatter-house-nehru-place-new-delhi/menu#tabtop?utm_source=api_basic_user&utm_medium=api&utm_campaign=v2.1",
"aggregate_rating": "4.2",
"rating_text": "Very Good",
"votes": "1606",
"cuisines": "Finger Food, Italian, North Indian"},
 {
"name": "The Backyard",
"url": "https://www.zomato.com/ncr/the-backyard-punjabi-bagh-new-delhi?utm_source=api_basic_user&utm_medium=api&utm_campaign=v2.1",
"address": "49, Ground Floor, North West Avenue, Club Road, Punjabi Bagh, New Delhi",
"locality": "Punjabi Bagh",
"city": "New Delhi",
"latitude": "28.6670451170",
"longitude": "77.1198277920",
"zipcode": "",
"country_id": "1",
"average_cost_for_two": "1700",
"currency": "Rs.",
"menu_url": "https://www.zomato.com/ncr/the-backyard-punjabi-bagh-new-delhi/menu#tabtop?utm_source=api_basic_user&utm_medium=api&utm_campaign=v2.1",
"aggregate_rating": "3.5",
"rating_text": "Good",
"votes": "517",
"cuisines": "American, Italian, Mediterranean, Mexican"},
 {
"name": "Sura Vie",
"url": "https://www.zomato.com/ncr/sura-vie-punjabi-bagh-new-delhi?utm_source=api_basic_user&utm_medium=api&utm_campaign=v2.1",
"address": "2/85, 1st Floor, Above State Bank Of India, Club Road, Punjabi Bagh, New Delhi",
"locality": "Punjabi Bagh",
"city": "New Delhi",
"latitude": "28.6665432469",
"longitude": "77.1240995452",
"zipcode": "",
"country_id": "1",
"average_cost_for_two": "1800",
"currency": "Rs.",
"menu_url": "https://www.zomato.com/ncr/sura-vie-punjabi-bagh-new-delhi/menu#tabtop?utm_source=api_basic_user&utm_medium=api&utm_campaign=v2.1",
"aggregate_rating": "3.5",
"rating_text": "Good",
"votes": "375",
"cuisines": "North Indian, Chinese, Italian, Thai"},
 {
"name": "Dubliner",
"url": "https://www.zomato.com/ncr/dubliner-1-punjabi-bagh-new-delhi?utm_source=api_basic_user&utm_medium=api&utm_campaign=v2.1",
"address": "1/83, Club Road, West Punjabi Bagh, Punjabi Bagh, New Delhi",
"locality": "Punjabi Bagh",
"city": "New Delhi",
"latitude": "28.6661693433",
"longitude": "77.1252327785",
"zipcode": "",
"country_id": "1",
"average_cost_for_two": "2000",
"currency": "Rs.",
"menu_url": "https://www.zomato.com/ncr/dubliner-1-punjabi-bagh-new-delhi/menu#tabtop?utm_source=api_basic_user&utm_medium=api&utm_campaign=v2.1",
"aggregate_rating": "3.4",
"rating_text": "Average",
"votes": "602",
"cuisines": "North Indian, Chinese, Italian, Continental, Finger Food"},
 {
"name": "Gyms Kook",
"url": "https://www.zomato.com/ncr/gyms-kook-punjabi-bagh-new-delhi?utm_source=api_basic_user&utm_medium=api&utm_campaign=v2.1",
"address": "Punjabi Bagh, New Delhi",
"locality": "Punjabi Bagh",
"city": "New Delhi",
"latitude": "28.6668159515",
"longitude": "77.1198495850",
"zipcode": "110026",
"country_id": "1",
"average_cost_for_two": "900",
"currency": "Rs.",
"menu_url": "https://www.zomato.com/ncr/gyms-kook-punjabi-bagh-new-delhi/menu#tabtop?utm_source=api_basic_user&utm_medium=api&utm_campaign=v2.1",
"aggregate_rating": "3.6",
"rating_text": "Good",
"votes": "261",
"cuisines": "Healthy Food, Juices, Continental, Italian"},
 {
"name": "Wok In The Clouds",
"url": "https://www.zomato.com/ncr/wok-in-the-clouds-punjabi-bagh-new-delhi?utm_source=api_basic_user&utm_medium=api&utm_campaign=v2.1",
"address": "3, Club Road, Punjabi Bagh West, Punjabi Bagh, New Delhi",
"locality": "Punjabi Bagh",
"city": "New Delhi",
"latitude": "28.6660016599",
"longitude": "77.1258141473",
"zipcode": "0",
"country_id": "1",
"average_cost_for_two": "1500",
"currency": "Rs.",
"menu_url": "https://www.zomato.com/ncr/wok-in-the-clouds-punjabi-bagh-new-delhi/menu#tabtop?utm_source=api_basic_user&utm_medium=api&utm_campaign=v2.1",
"aggregate_rating": "3.6",
"rating_text": "Good",
"votes": "220",
"cuisines": "Chinese, Thai, Continental, North Indian"},
 {
"name": "Tossin Pizza",
"url": "https://www.zomato.com/ncr/tossin-pizza-punjabi-bagh-new-delhi?utm_source=api_basic_user&utm_medium=api&utm_campaign=v2.1",
"address": "23, NWA Club Road, Punjabi Bagh, New Delhi",
"locality": "Punjabi Bagh",
"city": "New Delhi",
"latitude": "28.6664220000",
"longitude": "77.1248470000",
"zipcode": "",
"country_id": "1",
"average_cost_for_two": "900",
"currency": "Rs.",
"menu_url": "https://www.zomato.com/ncr/tossin-pizza-punjabi-bagh-new-delhi/menu#tabtop?utm_source=api_basic_user&utm_medium=api&utm_campaign=v2.1",
"aggregate_rating": "4.2",
"rating_text": "Very Good",
"votes": "141",
"cuisines": "Pizza, Italian"},
 {
"name": "Chug It",
"url": "https://www.zomato.com/ncr/chug-it-punjabi-bagh-new-delhi?utm_source=api_basic_user&utm_medium=api&utm_campaign=v2.1",
"address": "1, Club Road, North West Avenue, West Punjabi Bagh, Punjabi Bagh, New Delhi",
"locality": "Punjabi Bagh",
"city": "New Delhi",
"latitude": "28.6666891601",
"longitude": "77.1234075353",
"zipcode": "110026",
"country_id": "1",
"average_cost_for_two": "1400",
"currency": "Rs.",
"menu_url": "https://www.zomato.com/ncr/chug-it-punjabi-bagh-new-delhi/menu#tabtop?utm_source=api_basic_user&utm_medium=api&utm_campaign=v2.1",
"aggregate_rating": "4.1",
"rating_text": "Very Good",
"votes": "459",
"cuisines": "American, Continental, Italian"},
 {
"name": "Masabaa",
"url": "https://www.zomato.com/ncr/masabaa-punjabi-bagh-new-delhi?utm_source=api_basic_user&utm_medium=api&utm_campaign=v2.1",
"address": "Building 37, Club Road, West Punjabi Bagh, Punjabi Bagh, New Delhi",
"locality": "Punjabi Bagh",
"city": "New Delhi",
"latitude": "28.6665803136",
"longitude": "77.1239718050",
"zipcode": "",
"country_id": "1",
"average_cost_for_two": "2300",
"currency": "Rs.",
"menu_url": "https://www.zomato.com/ncr/masabaa-punjabi-bagh-new-delhi/menu#tabtop?utm_source=api_basic_user&utm_medium=api&utm_campaign=v2.1",
"aggregate_rating": "3.8",
"rating_text": "Good",
"votes": "549",
"cuisines": "North Indian, Chinese, Continental, Italian"},
 {
"name": "Raftaar -The High Speed Lounge & Bar",
"url": "https://www.zomato.com/ncr/raftaar-the-high-speed-lounge-bar-punjabi-bagh-new-delhi?utm_source=api_basic_user&utm_medium=api&utm_campaign=v2.1",
"address": "15C, Club Road, Punjabi Bagh, New Delhi",
"locality": "Punjabi Bagh",
"city": "New Delhi",
"latitude": "28.6663440867",
"longitude": "77.1256310865",
"zipcode": "",
"country_id": "1",
"average_cost_for_two": "1200",
"currency": "Rs.",
"menu_url": "https://www.zomato.com/ncr/raftaar-the-high-speed-lounge-bar-punjabi-bagh-new-delhi/menu#tabtop?utm_source=api_basic_user&utm_medium=api&utm_campaign=v2.1",
"aggregate_rating": "3.8",
"rating_text": "Good",
"votes": "96",
"cuisines": "Continental, Chinese, Italian, North Indian"},
 {
"name": "Offline Cafe",
"url": "https://www.zomato.com/kanpur/offline-cafe-tilak-nagar?utm_source=api_basic_user&utm_medium=api&utm_campaign=v2.1",
"address": "10/503, Near Lakme Salon, Tilak Nagar, Kanpur",
"locality": "Tilak Nagar",
"city": "Kanpur",
"latitude": "26.4900000000",
"longitude": "80.3200000000",
"zipcode": "",
"country_id": "1",
"average_cost_for_two": "600",
"currency": "Rs.",
"menu_url": "https://www.zomato.com/kanpur/offline-cafe-tilak-nagar/menu#tabtop?utm_source=api_basic_user&utm_medium=api&utm_campaign=v2.1",
"aggregate_rating": "3.1",
"rating_text": "Average",
"votes": "7",
"cuisines": "Cafe, Continental"},
 {
"name": "Hucka",
"url": "https://www.zomato.com/kanpur/hucka-arya-nagar?utm_source=api_basic_user&utm_medium=api&utm_campaign=v2.1",
"address": "3rd Floor, SGM Plaza, Arya Nagar, Kanpur",
"locality": "Arya Nagar",
"city": "Kanpur",
"latitude": "26.4836722222",
"longitude": "80.3207083333",
"zipcode": "",
"country_id": "1",
"average_cost_for_two": "550",
"currency": "Rs.",
"menu_url": "https://www.zomato.com/kanpur/hucka-arya-nagar/menu#tabtop?utm_source=api_basic_user&utm_medium=api&utm_campaign=v2.1",
"aggregate_rating": "3.6",
"rating_text": "Good",
"votes": "135",
"cuisines": "Chinese, Fast Food"},
 {
"name": "Verandah",
"url": "https://www.zomato.com/verandah?utm_source=api_basic_user&utm_medium=api&utm_campaign=v2.1",
"address": "Third Floor, 7/17, Parvati Bagla Road, Tilak Nagar, Kanpur",
"locality": "Tilak Nagar",
"city": "Kanpur",
"latitude": "26.4909500000",
"longitude": "80.3186555556",
"zipcode": "208002",
"country_id": "1",
"average_cost_for_two": "1500",
"currency": "Rs.",
"menu_url": "https://www.zomato.com/verandah/menu#tabtop?utm_source=api_basic_user&utm_medium=api&utm_campaign=v2.1",
"aggregate_rating": "3.9",
"rating_text": "Good",
"votes": "150",
"cuisines": "Chinese, Italian, Fast Food"},
 {
"name": "Terrazza 9",
"url": "https://www.zomato.com/kanpur/terrazza-9-tilak-nagar?utm_source=api_basic_user&utm_medium=api&utm_campaign=v2.1",
"address": "Rave 3, Plot 11, Block 6 Parwati Bagla Road, Tilak Nagar, Kanpur",
"locality": "Tilak Nagar",
"city": "Kanpur",
"latitude": "26.4921694444",
"longitude": "80.3274694444",
"zipcode": "",
"country_id": "1",
"average_cost_for_two": "1500",
"currency": "Rs.",
"menu_url": "https://www.zomato.com/kanpur/terrazza-9-tilak-nagar/menu#tabtop?utm_source=api_basic_user&utm_medium=api&utm_campaign=v2.1",
"aggregate_rating": "4.2",
"rating_text": "Very Good",
"votes": "103",
"cuisines": "Mughlai, Continental, North Indian"},
 {
"name": "Baba Foods",
"url": "https://www.zomato.com/kanpur/baba-foods-swaroop-nagar?utm_source=api_basic_user&utm_medium=api&utm_campaign=v2.1",
"address": "112/339, Near Madhuraj Hospital, Swaroop Nagar, Kanpur",
"locality": "Swaroop Nagar",
"city": "Kanpur",
"latitude": "26.4811833333",
"longitude": "80.3177555556",
"zipcode": "",
"country_id": "1",
"average_cost_for_two": "450",
"currency": "Rs.",
"menu_url": "https://www.zomato.com/kanpur/baba-foods-swaroop-nagar/menu#tabtop?utm_source=api_basic_user&utm_medium=api&utm_campaign=v2.1",
"aggregate_rating": "4.0",
"rating_text": "Very Good",
"votes": "71",
"cuisines": "Mughlai, Hyderabadi"},
 {
"name": "Mithas Sweets",
"url": "https://www.zomato.com/kanpur/mithas-sweets-swaroop-nagar?utm_source=api_basic_user&utm_medium=api&utm_campaign=v2.1",
"address": "7/1081, Near Khanna Motor, Swaroop Nagar, Kanpur",
"locality": "Swaroop Nagar",
"city": "Kanpur",
"latitude": "26.4824570000",
"longitude": "80.3148110000",
"zipcode": "",
"country_id": "1",
"average_cost_for_two": "250",
"currency": "Rs.",
"menu_url": "https://www.zomato.com/kanpur/mithas-sweets-swaroop-nagar/menu#tabtop?utm_source=api_basic_user&utm_medium=api&utm_campaign=v2.1",
"aggregate_rating": "4.1",
"rating_text": "Very Good",
"votes": "53",
"cuisines": "Desserts, Street Food"},
 {
"name": "Energy Store",
"url": "https://www.zomato.com/kanpur/energy-store-swaroop-nagar?utm_source=api_basic_user&utm_medium=api&utm_campaign=v2.1",
"address": "Ground Floor, Radiance Town, Swaroop Nagar, Kanpur",
"locality": "Swaroop Nagar",
"city": "Kanpur",
"latitude": "26.4832166667",
"longitude": "80.3196805556",
"zipcode": "",
"country_id": "1",
"average_cost_for_two": "400",
"currency": "Rs.",
"menu_url": "https://www.zomato.com/kanpur/energy-store-swaroop-nagar/menu#tabtop?utm_source=api_basic_user&utm_medium=api&utm_campaign=v2.1",
"aggregate_rating": "4.0",
"rating_text": "Very Good",
"votes": "76",
"cuisines": "North Indian"},
 {
"name": "Aromas",
"url": "https://www.zomato.com/kanpur/aromas-swaroop-nagar?utm_source=api_basic_user&utm_medium=api&utm_campaign=v2.1",
"address": "7/135, Opposite Indian Overses Bank, Swaroop Nagar, Kanpur",
"locality": "Swaroop Nagar",
"city": "Kanpur",
"latitude": "26.4830416667",
"longitude": "80.3178333333",
"zipcode": "",
"country_id": "1",
"average_cost_for_two": "350",
"currency": "Rs.",
"menu_url": "https://www.zomato.com/kanpur/aromas-swaroop-nagar/menu#tabtop?utm_source=api_basic_user&utm_medium=api&utm_campaign=v2.1",
"aggregate_rating": "4.3",
"rating_text": "Very Good",
"votes": "160",
"cuisines": "Fast Food"},
 {
"name": "Subway",
"url": "https://www.zomato.com/kanpur/subway-swaroop-nagar?utm_source=api_basic_user&utm_medium=api&utm_campaign=v2.1",
"address": "113/121A, Nadri Corner, Moti Jheel, Swaroop Nagar, Kanpur",
"locality": "Swaroop Nagar",
"city": "Kanpur",
"latitude": "0.0000000000",
"longitude": "0.0000000000",
"zipcode": "",
"country_id": "1",
"average_cost_for_two": "450",
"currency": "Rs.",
"menu_url": "https://www.zomato.com/kanpur/subway-swaroop-nagar/menu#tabtop?utm_source=api_basic_user&utm_medium=api&utm_campaign=v2.1",
"aggregate_rating": "3.4",
"rating_text": "Average",
"votes": "24",
"cuisines": "Fast Food, American, Salad, Healthy Food"},
 {
"name": "Marky Momos",
"url": "https://www.zomato.com/jaipur/marky-momos-raja-park?utm_source=api_basic_user&utm_medium=api&utm_campaign=v2.1",
"address": "304/4, Raja Park, Jaipur",
"locality": "Raja Park",
"city": "Jaipur",
"latitude": "26.8941783612",
"longitude": "75.8260092884",
"zipcode": "0",
"country_id": "1",
"average_cost_for_two": "550",
"currency": "Rs.",
"menu_url": "https://www.zomato.com/jaipur/marky-momos-raja-park/menu#tabtop?utm_source=api_basic_user&utm_medium=api&utm_campaign=v2.1",
"aggregate_rating": "3.6",
"rating_text": "Good",
"votes": "396",
"cuisines": "Chinese"},
 {
"name": "Laxmi Mishthan Bhandar",
"url": "https://www.zomato.com/jaipur/laxmi-mishthan-bhandar-pink-city?utm_source=api_basic_user&utm_medium=api&utm_campaign=v2.1",
"address": "100, Johari Bazaar, Pink City, Jaipur",
"locality": "Pink City",
"city": "Jaipur",
"latitude": "26.9193791260",
"longitude": "75.8258040994",
"zipcode": "0",
"country_id": "1",
"average_cost_for_two": "900",
"currency": "Rs.",
"menu_url": "https://www.zomato.com/jaipur/laxmi-mishthan-bhandar-pink-city/menu#tabtop?utm_source=api_basic_user&utm_medium=api&utm_campaign=v2.1",
"aggregate_rating": "2.3",
"rating_text": "Poor",
"votes": "716",
"cuisines": "Desserts, North Indian, Rajasthani, South Indian, Chinese, Street Food"},
 {
"name": "Kebabs & Curries Company",
"url": "https://www.zomato.com/jaipur/kebabs-curries-company-raja-park?utm_source=api_basic_user&utm_medium=api&utm_campaign=v2.1",
"address": "446, Lane 4, Raja Park, Jaipur",
"locality": "Raja Park",
"city": "Jaipur",
"latitude": "26.8936760000",
"longitude": "75.8272070000",
"zipcode": "302004",
"country_id": "1",
"average_cost_for_two": "750",
"currency": "Rs.",
"menu_url": "https://www.zomato.com/jaipur/kebabs-curries-company-raja-park/menu#tabtop?utm_source=api_basic_user&utm_medium=api&utm_campaign=v2.1",
"aggregate_rating": "3.8",
"rating_text": "Good",
"votes": "168",
"cuisines": "North Indian, Mughlai, Chinese"},
 {
"name": "Thadi",
"url": "https://www.zomato.com/jaipur/thadi-raja-park?utm_source=api_basic_user&utm_medium=api&utm_campaign=v2.1",
"address": "3rd Floor 402C/3 Lane 3, Near Axis Bank, Raja Park, Jaipur",
"locality": "Raja Park",
"city": "Jaipur",
"latitude": "26.8947097075",
"longitude": "75.8276672289",
"zipcode": "0",
"country_id": "1",
"average_cost_for_two": "400",
"currency": "Rs.",
"menu_url": "https://www.zomato.com/jaipur/thadi-raja-park/menu#tabtop?utm_source=api_basic_user&utm_medium=api&utm_campaign=v2.1",
"aggregate_rating": "3.7",
"rating_text": "Good",
"votes": "149",
"cuisines": "Cafe, Fast Food, Street Food"},
 {
"name": "Jaipur Jungle",
"url": "https://www.zomato.com/jaipur/jaipur-jungle-adarsh-nagar?utm_source=api_basic_user&utm_medium=api&utm_campaign=v2.1",
"address": "6th Floor, UDB Tower, Opposite Mango Hotel, Baraf Khana, Adarsh Nagar, Jaipur",
"locality": "Adarsh Nagar",
"city": "Jaipur",
"latitude": "26.8998430000",
"longitude": "75.8344200000",
"zipcode": "",
"country_id": "1",
"average_cost_for_two": "900",
"currency": "Rs.",
"menu_url": "https://www.zomato.com/jaipur/jaipur-jungle-adarsh-nagar/menu#tabtop?utm_source=api_basic_user&utm_medium=api&utm_campaign=v2.1",
"aggregate_rating": "3.5",
"rating_text": "Good",
"votes": "321",
"cuisines": "North Indian, Chinese, Italian"},
 {
"name": "Brown Sugar",
"url": "https://www.zomato.com/jaipur/brown-sugar-raja-park?utm_source=api_basic_user&utm_medium=api&utm_campaign=v2.1",
"address": "409/3, Gandhi Villa, Behind Axis Bank, Raja Park, Jaipur",
"locality": "Raja Park",
"city": "Jaipur",
"latitude": "26.8946444444",
"longitude": "75.8275833333",
"zipcode": "",
"country_id": "1",
"average_cost_for_two": "650",
"currency": "Rs.",
"menu_url": "https://www.zomato.com/jaipur/brown-sugar-raja-park/menu#tabtop?utm_source=api_basic_user&utm_medium=api&utm_campaign=v2.1",
"aggregate_rating": "3.6",
"rating_text": "Good",
"votes": "42",
"cuisines": "Cafe, Fast Food, Bakery"},
 {
"name": "Bar Palladio Jaipur",
"url": "https://www.zomato.com/jaipur/bar-palladio-jaipur-narayan-singh-circle?utm_source=api_basic_user&utm_medium=api&utm_campaign=v2.1",
"address": "Hotel Narain Niwas, Kanota Bagh, Narayan Singh Circle, Jaipur",
"locality": "Narayan Singh Circle",
"city": "Jaipur",
"latitude": "26.8989850000",
"longitude": "75.8141460000",
"zipcode": "",
"country_id": "1",
"average_cost_for_two": "1800",
"currency": "Rs.",
"menu_url": "https://www.zomato.com/jaipur/bar-palladio-jaipur-narayan-singh-circle/menu#tabtop?utm_source=api_basic_user&utm_medium=api&utm_campaign=v2.1",
"aggregate_rating": "4.0",
"rating_text": "Very Good",
"votes": "179",
"cuisines": "Italian"},
 {
"name": "Brewberrys",
"url": "https://www.zomato.com/jaipur/brewberrys-raja-park?utm_source=api_basic_user&utm_medium=api&utm_campaign=v2.1",
"address": "29, Govind Marg, Near Ramada Hotel, Raja Park, Jaipur",
"locality": "Raja Park",
"city": "Jaipur",
"latitude": "26.8963760000",
"longitude": "75.8281490000",
"zipcode": "0",
"country_id": "1",
"average_cost_for_two": "550",
"currency": "Rs.",
"menu_url": "https://www.zomato.com/jaipur/brewberrys-raja-park/menu#tabtop?utm_source=api_basic_user&utm_medium=api&utm_campaign=v2.1",
"aggregate_rating": "3.7",
"rating_text": "Good",
"votes": "216",
"cuisines": "Cafe, Fast Food"},
 {
"name": "V2 Fine Dining Restaurant",
"url": "https://www.zomato.com/jaipur/v2-fine-dining-restaurant-1-c-scheme?utm_source=api_basic_user&utm_medium=api&utm_campaign=v2.1",
"address": "Near B-5, Central Park Gate 4, Opposite Okay Diagnostic, Vivekanand Marg, C Scheme, Jaipur",
"locality": "C Scheme",
"city": "Jaipur",
"latitude": "26.9080906180",
"longitude": "75.8126760274",
"zipcode": "0",
"country_id": "1",
"average_cost_for_two": "600",
"currency": "Rs.",
"menu_url": "https://www.zomato.com/jaipur/v2-fine-dining-restaurant-1-c-scheme/menu#tabtop?utm_source=api_basic_user&utm_medium=api&utm_campaign=v2.1",
"aggregate_rating": "3.6",
"rating_text": "Good",
"votes": "64",
"cuisines": "Fast Food, North Indian, South Indian, Chinese, Italian"},
 {
"name": "Kebab Gali",
"url": "https://www.zomato.com/ncr/kebab-gali-malviya-nagar-new-delhi?utm_source=api_basic_user&utm_medium=api&utm_campaign=v2.1",
"address": "7-8, Corner Market, Malviya Nagar, New Delhi",
"locality": "Malviya Nagar",
"city": "New Delhi",
"latitude": "28.5387215649",
"longitude": "77.2133775428",
"zipcode": "",
"country_id": "1",
"average_cost_for_two": "600",
"currency": "Rs.",
"menu_url": "https://www.zomato.com/ncr/kebab-gali-malviya-nagar-new-delhi/menu#tabtop?utm_source=api_basic_user&utm_medium=api&utm_campaign=v2.1",
"aggregate_rating": "3.9",
"rating_text": "Good",
"votes": "572",
"cuisines": "North Indian, Mughlai, Biryani"},
 {
"name": "Tpot Cafe",
"url": "https://www.zomato.com/ncr/tpot-cafe-malviya-nagar-new-delhi?utm_source=api_basic_user&utm_medium=api&utm_campaign=v2.1",
"address": "C-5, Main Market, Malviya Nagar, New Delhi",
"locality": "Malviya Nagar",
"city": "New Delhi",
"latitude": "28.5374447340",
"longitude": "77.2104284540",
"zipcode": "",
"country_id": "1",
"average_cost_for_two": "800",
"currency": "Rs.",
"menu_url": "https://www.zomato.com/ncr/tpot-cafe-malviya-nagar-new-delhi/menu#tabtop?utm_source=api_basic_user&utm_medium=api&utm_campaign=v2.1",
"aggregate_rating": "3.6",
"rating_text": "Good",
"votes": "603",
"cuisines": "Cafe, Italian"},
 {
"name": "Chaayos",
"url": "https://www.zomato.com/ncr/chaayos-sda-new-delhi?utm_source=api_basic_user&utm_medium=api&utm_campaign=v2.1",
"address": "C-14, SDA Market, Opposite IIT Delhi Main Gate, SDA, New Delhi",
"locality": "SDA",
"city": "New Delhi",
"latitude": "28.5464886000",
"longitude": "77.1963412000",
"zipcode": "",
"country_id": "1",
"average_cost_for_two": "400",
"currency": "Rs.",
"menu_url": "https://www.zomato.com/ncr/chaayos-sda-new-delhi/menu#tabtop?utm_source=api_basic_user&utm_medium=api&utm_campaign=v2.1",
"aggregate_rating": "3.6",
"rating_text": "Good",
"votes": "577",
"cuisines": "Cafe, Tea"},
 {
"name": "The Munchbox",
"url": "https://www.zomato.com/ncr/the-munchbox-malviya-nagar-new-delhi?utm_source=api_basic_user&utm_medium=api&utm_campaign=v2.1",
"address": "80/63, Near Gurudwara, Malviya Nagar, New Delhi",
"locality": "Malviya Nagar",
"city": "New Delhi",
"latitude": "28.5393545256",
"longitude": "77.2123398632",
"zipcode": "",
"country_id": "1",
"average_cost_for_two": "850",
"currency": "Rs.",
"menu_url": "https://www.zomato.com/ncr/the-munchbox-malviya-nagar-new-delhi/menu#tabtop?utm_source=api_basic_user&utm_medium=api&utm_campaign=v2.1",
"aggregate_rating": "3.8",
"rating_text": "Good",
"votes": "576",
"cuisines": "North Indian, Continental, Fast Food, American, European"},
 {
"name": "What A Comic Show",
"url": "https://www.zomato.com/ncr/what-a-comic-show-sda-new-delhi?utm_source=api_basic_user&utm_medium=api&utm_campaign=v2.1",
"address": "C-21, 2nd Floor, SDA, New Delhi",
"locality": "SDA",
"city": "New Delhi",
"latitude": "28.5463515955",
"longitude": "77.1966931969",
"zipcode": "",
"country_id": "1",
"average_cost_for_two": "1200",
"currency": "Rs.",
"menu_url": "https://www.zomato.com/ncr/what-a-comic-show-sda-new-delhi/menu#tabtop?utm_source=api_basic_user&utm_medium=api&utm_campaign=v2.1",
"aggregate_rating": "3.7",
"rating_text": "Good",
"votes": "666",
"cuisines": "Continental, Italian, Chinese"},
 {
"name": "Pepper Kitchen",
"url": "https://www.zomato.com/ncr/pepper-kitchen-malviya-nagar-new-delhi?utm_source=api_basic_user&utm_medium=api&utm_campaign=v2.1",
"address": "C 51, Ground Floor, Main Market, Malviya Nagar, New Delhi",
"locality": "Malviya Nagar",
"city": "New Delhi",
"latitude": "28.5355970000",
"longitude": "77.2103670000",
"zipcode": "110017",
"country_id": "1",
"average_cost_for_two": "500",
"currency": "Rs.",
"menu_url": "https://www.zomato.com/ncr/pepper-kitchen-malviya-nagar-new-delhi/menu#tabtop?utm_source=api_basic_user&utm_medium=api&utm_campaign=v2.1",
"aggregate_rating": "4.0",
"rating_text": "Very Good",
"votes": "128",
"cuisines": "Cafe, American, Italian"},
 {
"name": "Thok (The House of Kakori)",
"url": "https://www.zomato.com/ncr/thok-the-house-of-kakori-malviya-nagar-new-delhi?utm_source=api_basic_user&utm_medium=api&utm_campaign=v2.1",
"address": "Malviya Nagar, New Delhi",
"locality": "Malviya Nagar",
"city": "New Delhi",
"latitude": "28.5339399230",
"longitude": "77.2096579894",
"zipcode": "",
"country_id": "1",
"average_cost_for_two": "600",
"currency": "Rs.",
"menu_url": "https://www.zomato.com/ncr/thok-the-house-of-kakori-malviya-nagar-new-delhi/menu#tabtop?utm_source=api_basic_user&utm_medium=api&utm_campaign=v2.1",
"aggregate_rating": "3.5",
"rating_text": "Good",
"votes": "394",
"cuisines": "North Indian, Mughlai, Chinese"},
 {
"name": "Chi Kitchen & Bar",
"url": "https://www.zomato.com/ncr/chi-kitchen-bar-sda-new-delhi?utm_source=api_basic_user&utm_medium=api&utm_campaign=v2.1",
"address": "C-1, Commercial Centre, Opposite IIT Main Gate, SDA, New Delhi",
"locality": "SDA",
"city": "New Delhi",
"latitude": "28.5466811594",
"longitude": "77.1965148300",
"zipcode": "110016",
"country_id": "1",
"average_cost_for_two": "1600",
"currency": "Rs.",
"menu_url": "https://www.zomato.com/ncr/chi-kitchen-bar-sda-new-delhi/menu#tabtop?utm_source=api_basic_user&utm_medium=api&utm_campaign=v2.1",
"aggregate_rating": "3.7",
"rating_text": "Good",
"votes": "442",
"cuisines": "Chinese, Thai"},
 {
"name": "Pema's",
"url": "https://www.zomato.com/ncr/pemas-malviya-nagar-new-delhi?utm_source=api_basic_user&utm_medium=api&utm_campaign=v2.1",
"address": "Shop 3, 3/31, Upper Ground Floor, Shivalik Road, Malviya Nagar, New Delhi",
"locality": "Malviya Nagar",
"city": "New Delhi",
"latitude": "28.5343352105",
"longitude": "77.2072644532",
"zipcode": "",
"country_id": "1",
"average_cost_for_two": "700",
"currency": "Rs.",
"menu_url": "https://www.zomato.com/ncr/pemas-malviya-nagar-new-delhi/menu#tabtop?utm_source=api_basic_user&utm_medium=api&utm_campaign=v2.1",
"aggregate_rating": "3.6",
"rating_text": "Good",
"votes": "371",
"cuisines": "Chinese, Tibetan, Japanese"},
 {
"name": "Starvin' Marvin",
"url": "https://www.zomato.com/ncr/starvin-marvin-jasola-new-delhi?utm_source=api_basic_user&utm_medium=api&utm_campaign=v2.1",
"address": "Jasola, New Delhi",
"locality": "Jasola",
"city": "New Delhi",
"latitude": "28.5427849357",
"longitude": "77.2985172272",
"zipcode": "",
"country_id": "1",
"average_cost_for_two": "600",
"currency": "Rs.",
"menu_url": "https://www.zomato.com/ncr/starvin-marvin-jasola-new-delhi/menu#tabtop?utm_source=api_basic_user&utm_medium=api&utm_campaign=v2.1",
"aggregate_rating": "3.7",
"rating_text": "Good",
"votes": "118",
"cuisines": "Italian, Mexican, Lebanese"},
 {
"name": "BTW",
"url": "https://www.zomato.com/ncr/btw-jasola-new-delhi?utm_source=api_basic_user&utm_medium=api&utm_campaign=v2.1",
"address": "1 & 2, Living Style Mall, Main Kalindi Kunj Road, Jasola, New Delhi",
"locality": "Jasola",
"city": "New Delhi",
"latitude": "28.5412469053",
"longitude": "77.2969089076",
"zipcode": "0",
"country_id": "1",
"average_cost_for_two": "400",
"currency": "Rs.",
"menu_url": "https://www.zomato.com/ncr/btw-jasola-new-delhi/menu#tabtop?utm_source=api_basic_user&utm_medium=api&utm_campaign=v2.1",
"aggregate_rating": "3.4",
"rating_text": "Average",
"votes": "192",
"cuisines": "North Indian, Street Food, South Indian, Mithai"},
 {
"name": "Aromas Of Pind",
"url": "https://www.zomato.com/ncr/aromas-of-pind-mathura-road-new-delhi?utm_source=api_basic_user&utm_medium=api&utm_campaign=v2.1",
"address": "A-38, Mohan Cooperative Estate, Near Sarita Vihar Metro Station, Opposite Metro Pillar 302, Mathura Road, New Delhi",
"locality": "Mathura Road",
"city": "New Delhi",
"latitude": "28.5217598060",
"longitude": "77.2933878377",
"zipcode": "",
"country_id": "1",
"average_cost_for_two": "1000",
"currency": "Rs.",
"menu_url": "https://www.zomato.com/ncr/aromas-of-pind-mathura-road-new-delhi/menu#tabtop?utm_source=api_basic_user&utm_medium=api&utm_campaign=v2.1",
"aggregate_rating": "4.2",
"rating_text": "Very Good",
"votes": "123",
"cuisines": "North Indian, Chinese"},
 {
"name": "Mumu Dahlin",
"url": "https://www.zomato.com/ncr/mumu-dahlin-jasola-new-delhi?utm_source=api_basic_user&utm_medium=api&utm_campaign=v2.1",
"address": "The Nanee Suites, Plot 49, Pocket 1, Road 13A, Jasola, New Delhi",
"locality": "Jasola",
"city": "New Delhi",
"latitude": "28.5399748175",
"longitude": "77.2945180535",
"zipcode": "110025",
"country_id": "1",
"average_cost_for_two": "1000",
"currency": "Rs.",
"menu_url": "https://www.zomato.com/ncr/mumu-dahlin-jasola-new-delhi/menu#tabtop?utm_source=api_basic_user&utm_medium=api&utm_campaign=v2.1",
"aggregate_rating": "3.9",
"rating_text": "Good",
"votes": "83",
"cuisines": "Continental, North Indian, Chinese, Cafe"},
 {
"name": "Sugar Magik",
"url": "https://www.zomato.com/ncr/sugar-magik-sarita-vihar-new-delhi?utm_source=api_basic_user&utm_medium=api&utm_campaign=v2.1",
"address": "G-5, Pocket H, Opposite Mother Dairy, Sarita Vihar, New Delhi",
"locality": "Sarita Vihar",
"city": "New Delhi",
"latitude": "28.5342801296",
"longitude": "77.2918770835",
"zipcode": "110076",
"country_id": "1",
"average_cost_for_two": "300",
"currency": "Rs.",
"menu_url": "https://www.zomato.com/ncr/sugar-magik-sarita-vihar-new-delhi/menu#tabtop?utm_source=api_basic_user&utm_medium=api&utm_campaign=v2.1",
"aggregate_rating": "4.0",
"rating_text": "Very Good",
"votes": "61",
"cuisines": "Bakery, Fast Food"},
 {
"name": "Domino's Pizza",
"url": "https://www.zomato.com/ncr/dominos-pizza-jasola-new-delhi?utm_source=api_basic_user&utm_medium=api&utm_campaign=v2.1",
"address": "14-16, Ground Floor, Living Style Mall, Main Kalindi Kunj Road, Jasola, New Delhi",
"locality": "Jasola",
"city": "New Delhi",
"latitude": "28.5412413092",
"longitude": "77.2969296947",
"zipcode": "0",
"country_id": "1",
"average_cost_for_two": "700",
"currency": "Rs.",
"menu_url": "https://www.zomato.com/ncr/dominos-pizza-jasola-new-delhi/menu#tabtop?utm_source=api_basic_user&utm_medium=api&utm_campaign=v2.1",
"aggregate_rating": "2.7",
"rating_text": "Average",
"votes": "75",
"cuisines": "Pizza, Fast Food"},
 {
"name": "Sagar Ratna",
"url": "https://www.zomato.com/ncr/sagar-ratna-jasola-new-delhi?utm_source=api_basic_user&utm_medium=api&utm_campaign=v2.1",
"address": "24 & 25, Ground Floor, Tower B, DLF Building, Near District Center, Jasola, New Delhi",
"locality": "Jasola",
"city": "New Delhi",
"latitude": "28.5382829966",
"longitude": "77.2897745669",
"zipcode": "0",
"country_id": "1",
"average_cost_for_two": "600",
"currency": "Rs.",
"menu_url": "https://www.zomato.com/ncr/sagar-ratna-jasola-new-delhi/menu#tabtop?utm_source=api_basic_user&utm_medium=api&utm_campaign=v2.1",
"aggregate_rating": "2.3",
"rating_text": "Poor",
"votes": "66",
"cuisines": "South Indian, North Indian, Chinese"},
 {
"name": "Big Dragon",
"url": "https://www.zomato.com/ncr/big-dragon-jasola-new-delhi?utm_source=api_basic_user&utm_medium=api&utm_campaign=v2.1",
"address": "42, Living Style Mall, Main Kalindi Kunj Road, Jasola, New Delhi",
"locality": "Jasola",
"city": "New Delhi",
"latitude": "28.5411829920",
"longitude": "77.2969420999",
"zipcode": "0",
"country_id": "1",
"average_cost_for_two": "650",
"currency": "Rs.",
"menu_url": "https://www.zomato.com/ncr/big-dragon-jasola-new-delhi/menu#tabtop?utm_source=api_basic_user&utm_medium=api&utm_campaign=v2.1",
"aggregate_rating": "3.4",
"rating_text": "Average",
"votes": "78",
"cuisines": "Chinese, Thai"},
 {
"name": "Subway",
"url": "https://www.zomato.com/ncr/subway-jasola-new-delhi?utm_source=api_basic_user&utm_medium=api&utm_campaign=v2.1",
"address": "Ground Floor Atrium, Splendor Forum, Jasola, New Delhi",
"locality": "Jasola",
"city": "New Delhi",
"latitude": "28.5389781074",
"longitude": "77.2957756743",
"zipcode": "0",
"country_id": "1",
"average_cost_for_two": "500",
"currency": "Rs.",
"menu_url": "https://www.zomato.com/ncr/subway-jasola-new-delhi/menu#tabtop?utm_source=api_basic_user&utm_medium=api&utm_campaign=v2.1",
"aggregate_rating": "3.0",
"rating_text": "Average",
"votes": "64",
"cuisines": "American, Fast Food, Salad, Healthy Food"},
 {
"name": "Tapri Central",
"url": "https://www.zomato.com/jaipur/tapri-central-c-scheme?utm_source=api_basic_user&utm_medium=api&utm_campaign=v2.1",
"address": "B4 E, 3rd Floor, Surana Jewellers, Opposite Central Park, C Scheme, Jaipur",
"locality": "C Scheme",
"city": "Jaipur",
"latitude": "26.9051899059",
"longitude": "75.8107532188",
"zipcode": "0",
"country_id": "1",
"average_cost_for_two": "750",
"currency": "Rs.",
"menu_url": "https://www.zomato.com/jaipur/tapri-central-c-scheme/menu#tabtop?utm_source=api_basic_user&utm_medium=api&utm_campaign=v2.1",
"aggregate_rating": "4.6",
"rating_text": "Excellent",
"votes": "1263",
"cuisines": "Cafe, Fast Food, Street Food"},
 {
"name": "Mamu's Infusion",
"url": "https://www.zomato.com/jaipur/mamus-infusion-c-scheme?utm_source=api_basic_user&utm_medium=api&utm_campaign=v2.1",
"address": "101, First Floor, Mangalam Ambition Tower, D-46-B, Subhash Marg, Agresen Circle, C Scheme, Jaipur",
"locality": "C Scheme",
"city": "Jaipur",
"latitude": "26.9134834363",
"longitude": "75.8031390980",
"zipcode": "",
"country_id": "1",
"average_cost_for_two": "1400",
"currency": "Rs.",
"menu_url": "https://www.zomato.com/jaipur/mamus-infusion-c-scheme/menu#tabtop?utm_source=api_basic_user&utm_medium=api&utm_campaign=v2.1",
"aggregate_rating": "4.0",
"rating_text": "Very Good",
"votes": "507",
"cuisines": "Italian, Chinese, Mexican, Thai, North Indian"},
 {
"name": "Blackout",
"url": "https://www.zomato.com/jaipur/blackout-c-scheme?utm_source=api_basic_user&utm_medium=api&utm_campaign=v2.1",
"address": "Hotel Golden Oak, 9th Floor, Ahinsa Circle, Landmark Building, C Scheme, Jaipur",
"locality": "C Scheme",
"city": "Jaipur",
"latitude": "26.9142400000",
"longitude": "75.8057340000",
"zipcode": "",
"country_id": "1",
"average_cost_for_two": "1650",
"currency": "Rs.",
"menu_url": "https://www.zomato.com/jaipur/blackout-c-scheme/menu#tabtop?utm_source=api_basic_user&utm_medium=api&utm_campaign=v2.1",
"aggregate_rating": "3.9",
"rating_text": "Good",
"votes": "533",
"cuisines": "North Indian, European, Continental"},
 {
"name": "Rolla Wrappa",
"url": "https://www.zomato.com/jaipur/rolla-wrappa-1-c-scheme?utm_source=api_basic_user&utm_medium=api&utm_campaign=v2.1",
"address": "D-42, Whispering Palms, Subhash Marg, C Scheme, Jaipur",
"locality": "C Scheme",
"city": "Jaipur",
"latitude": "26.9110346061",
"longitude": "75.8018610254",
"zipcode": "",
"country_id": "1",
"average_cost_for_two": "850",
"currency": "Rs.",
"menu_url": "https://www.zomato.com/jaipur/rolla-wrappa-1-c-scheme/menu#tabtop?utm_source=api_basic_user&utm_medium=api&utm_campaign=v2.1",
"aggregate_rating": "3.6",
"rating_text": "Good",
"votes": "175",
"cuisines": "Cafe, Beverages, Continental, Italian, North Indian"},
 {
"name": "Handi Restaurant",
"url": "https://www.zomato.com/jaipur/handi-restaurant-mi-road?utm_source=api_basic_user&utm_medium=api&utm_campaign=v2.1",
"address": "Maya Mansion, Opposite GPO, MI Road, Jaipur",
"locality": "MI Road",
"city": "Jaipur",
"latitude": "26.9169973893",
"longitude": "75.8039011806",
"zipcode": "0",
"country_id": "1",
"average_cost_for_two": "1000",
"currency": "Rs.",
"menu_url": "https://www.zomato.com/jaipur/handi-restaurant-mi-road/menu#tabtop?utm_source=api_basic_user&utm_medium=api&utm_campaign=v2.1",
"aggregate_rating": "3.7",
"rating_text": "Good",
"votes": "512",
"cuisines": "North Indian, Mughlai"},
 {
"name": "Peacock Roof Top Restaurant",
"url": "https://www.zomato.com/jaipur/peacock-roof-top-restaurant-gopalbari?utm_source=api_basic_user&utm_medium=api&utm_campaign=v2.1",
"address": "Hotel Pearl Palace, 51, Hari Kishan Somani Marg, Behind Hero Honda Showroom,Near Vidayakpuri Police Station, Ajmer Road Gopalbari, Jaipur",
"locality": "Gopalbari",
"city": "Jaipur",
"latitude": "26.9163328139",
"longitude": "75.7956386358",
"zipcode": "302001",
"country_id": "1",
"average_cost_for_two": "900",
"currency": "Rs.",
"menu_url": "https://www.zomato.com/jaipur/peacock-roof-top-restaurant-gopalbari/menu#tabtop?utm_source=api_basic_user&utm_medium=api&utm_campaign=v2.1",
"aggregate_rating": "3.9",
"rating_text": "Good",
"votes": "178",
"cuisines": "North Indian, Chinese, Continental"},
 {
"name": "Tinder Box",
"url": "https://www.zomato.com/jaipur/tinder-box-c-scheme?utm_source=api_basic_user&utm_medium=api&utm_campaign=v2.1",
"address": "D-29, Subhash Marg, C Scheme, Jaipur",
"locality": "C Scheme",
"city": "Jaipur",
"latitude": "26.9110615133",
"longitude": "75.8020574972",
"zipcode": "",
"country_id": "1",
"average_cost_for_two": "750",
"currency": "Rs.",
"menu_url": "https://www.zomato.com/jaipur/tinder-box-c-scheme/menu#tabtop?utm_source=api_basic_user&utm_medium=api&utm_campaign=v2.1",
"aggregate_rating": "4.0",
"rating_text": "Very Good",
"votes": "215",
"cuisines": "Cafe, European, Italian"},
 {
"name": "Frooce - The Juice Bar",
"url": "https://www.zomato.com/jaipur/frooce-the-juice-bar-c-scheme?utm_source=api_basic_user&utm_medium=api&utm_campaign=v2.1",
"address": "6, Trimurty VJ Point, Ahinsa Circle, C Scheme, Jaipur",
"locality": "C Scheme",
"city": "Jaipur",
"latitude": "26.9144697099",
"longitude": "75.8050414547",
"zipcode": "302001",
"country_id": "1",
"average_cost_for_two": "250",
"currency": "Rs.",
"menu_url": "https://www.zomato.com/jaipur/frooce-the-juice-bar-c-scheme/menu#tabtop?utm_source=api_basic_user&utm_medium=api&utm_campaign=v2.1",
"aggregate_rating": "4.2",
"rating_text": "Very Good",
"votes": "53",
"cuisines": "Juices, Healthy Food"},
 {
"name": "Little Italy",
"url": "https://www.zomato.com/jaipur/little-italy-c-scheme?utm_source=api_basic_user&utm_medium=api&utm_campaign=v2.1",
"address": "C 11, KK Square, C Scheme, Jaipur",
"locality": "C Scheme",
"city": "Jaipur",
"latitude": "26.9106193371",
"longitude": "75.7984391972",
"zipcode": "0",
"country_id": "1",
"average_cost_for_two": "1300",
"currency": "Rs.",
"menu_url": "https://www.zomato.com/jaipur/little-italy-c-scheme/menu#tabtop?utm_source=api_basic_user&utm_medium=api&utm_campaign=v2.1",
"aggregate_rating": "4.2",
"rating_text": "Very Good",
"votes": "530",
"cuisines": "Italian, Mexican"}
]